[
  {
    "location_name": "United Arab Emirates",
    "sex_name": "Both",
    "age_name": "All Ages",
    "cause_name": "Drug use disorders",
    "year": 2017,
    "val": 629.440552012664,
    "upper": 827.6410170898355,
    "lower": 465.07938135456277,
    "all_causes_val": 26374.50982876709,
    "population": 9734100.22445125,
    "death_rate": 0.002709496432193755,
    "location_name_en": "United Arab Emirates",
    "location_name_de": "Vereinigte Arabische Emirate",
    "bounds": {
      "northeast": {
        "lat": 26.0765,
        "lng": 56.4395001
      },
      "southwest": {
        "lat": 22.6315138,
        "lng": 51.4723
      }
    },
    "center": {
      "lat": 23.424076,
      "lng": 53.847818
    }
  },
  {
    "location_name": "United States",
    "sex_name": "Both",
    "age_name": "All Ages",
    "cause_name": "Drug use disorders",
    "year": 2017,
    "val": 67629.28532822135,
    "upper": 70820.74427336887,
    "lower": 65037.67338997296,
    "all_causes_val": 2857692.988212477,
    "population": 324839023.992132,
    "death_rate": 0.008797258879467923,
    "location_name_en": "United States",
    "location_name_de": "USA",
    "bounds": {
      "northeast": {
        "lat": 49.38,
        "lng": -66.94
      },
      "southwest": {
        "lat": 25.82,
        "lng": -124.39
      }
    },
    "center": {
      "lat": 37.09024,
      "lng": -95.712891
    }
  },
  {
    "location_name": "Libya",
    "sex_name": "Both",
    "age_name": "All Ages",
    "cause_name": "Drug use disorders",
    "year": 2017,
    "val": 561.3965104633666,
    "upper": 722.951185397312,
    "lower": 428.1413103593042,
    "all_causes_val": 34455.83411325673,
    "population": 6908739.66048985,
    "death_rate": 0.0049872821681652005,
    "location_name_en": "Libya",
    "location_name_de": "Libyen",
    "bounds": {
      "northeast": {
        "lat": 33.2203,
        "lng": 25.2686
      },
      "southwest": {
        "lat": 19.5,
        "lng": 9.391466
      }
    },
    "center": {
      "lat": 26.3351,
      "lng": 17.228331
    }
  },
  {
    "location_name": "Lebanon",
    "sex_name": "Both",
    "age_name": "All Ages",
    "cause_name": "Drug use disorders",
    "year": 2017,
    "val": 340.16960294723543,
    "upper": 401.46510205381094,
    "lower": 286.01007832387324,
    "all_causes_val": 33578.40161473923,
    "population": 8511979.51599936,
    "death_rate": 0.0039448405099688395,
    "location_name_en": "Lebanon",
    "location_name_de": "Libanon",
    "bounds": {
      "northeast": {
        "lat": 34.69209,
        "lng": 36.62372
      },
      "southwest": {
        "lat": 33.0550256,
        "lng": 35.0711001
      }
    },
    "center": {
      "lat": 33.854721,
      "lng": 35.862285
    }
  },
  {
    "location_name": "Iran",
    "sex_name": "Both",
    "age_name": "All Ages",
    "cause_name": "Drug use disorders",
    "year": 2017,
    "val": 3389.219619445775,
    "upper": 3686.4827057562843,
    "lower": 3213.1507955836614,
    "all_causes_val": 380006.28905036836,
    "population": 82176111.0977552,
    "death_rate": 0.004624291463468256,
    "location_name_en": "Iran",
    "location_name_de": "Iran",
    "bounds": {
      "northeast": {
        "lat": 39.782056,
        "lng": 63.3333366
      },
      "southwest": {
        "lat": 24.8066999,
        "lng": 44.0326949
      }
    },
    "center": {
      "lat": 32.427908,
      "lng": 53.688046
    }
  },
  {
    "location_name": "Canada",
    "sex_name": "Both",
    "age_name": "All Ages",
    "cause_name": "Drug use disorders",
    "year": 2017,
    "val": 2076.3057588452907,
    "upper": 2284.157835003016,
    "lower": 1886.7645971700454,
    "all_causes_val": 279402.96124054916,
    "population": 35982917.5519005,
    "death_rate": 0.007764877899007165,
    "location_name_en": "Canada",
    "location_name_de": "Kanada",
    "bounds": {
      "northeast": {
        "lat": 70,
        "lng": -50
      },
      "southwest": {
        "lat": 42,
        "lng": -142
      }
    },
    "center": {
      "lat": 56.130366,
      "lng": -106.346771
    }
  },
  {
    "location_name": "Australia",
    "sex_name": "Both",
    "age_name": "All Ages",
    "cause_name": "Drug use disorders",
    "year": 2017,
    "val": 1222.5022144094658,
    "upper": 1391.171707787812,
    "lower": 1072.8692186800035,
    "all_causes_val": 170872.38625999138,
    "population": 23943081.5491762,
    "death_rate": 0.0071366079553728335,
    "location_name_en": "Australia",
    "location_name_de": "Australien",
    "bounds": {
      "northeast": {
        "lat": -0.6911343999999999,
        "lng": 166.7429167
      },
      "southwest": {
        "lat": -51.66332320000001,
        "lng": 100.0911072
      }
    },
    "center": {
      "lat": -25.274398,
      "lng": 133.775136
    }
  },
  {
    "location_name": "Norway",
    "sex_name": "Both",
    "age_name": "All Ages",
    "cause_name": "Drug use disorders",
    "year": 2017,
    "val": 273.93183368879505,
    "upper": 287.7885463282559,
    "lower": 258.37831857316206,
    "all_causes_val": 41374.29078124939,
    "population": 5263177.84860988,
    "death_rate": 0.007861085445208211,
    "location_name_en": "Norway",
    "location_name_de": "Norwegen",
    "bounds": {
      "northeast": {
        "lat": 71.30780000000001,
        "lng": 31.3549999
      },
      "southwest": {
        "lat": 57.8097,
        "lng": 4.0649
      }
    },
    "center": {
      "lat": 60.47202399999999,
      "lng": 8.468945999999999
    }
  },
  {
    "location_name": "Estonia",
    "sex_name": "Both",
    "age_name": "All Ages",
    "cause_name": "Drug use disorders",
    "year": 2017,
    "val": 93.93531756819283,
    "upper": 111.34779675432426,
    "lower": 77.92581640435455,
    "all_causes_val": 15296.437065496075,
    "population": 1314543.32134135,
    "death_rate": 0.01163631263965322,
    "location_name_en": "Estonia",
    "location_name_de": "Estland",
    "bounds": {
      "northeast": {
        "lat": 59.7315,
        "lng": 28.2101389
      },
      "southwest": {
        "lat": 57.50931600000001,
        "lng": 21.6540999
      }
    },
    "center": {
      "lat": 58.595272,
      "lng": 25.0136071
    }
  },
  {
    "location_name": "Algeria",
    "sex_name": "Both",
    "age_name": "All Ages",
    "cause_name": "Drug use disorders",
    "year": 2017,
    "val": 1010.678861741702,
    "upper": 1187.9787093044301,
    "lower": 829.2879537408058,
    "all_causes_val": 167907.4347127858,
    "population": 40463698.1374229,
    "death_rate": 0.004149582031344199,
    "location_name_en": "Algeria",
    "location_name_de": "Algerien",
    "bounds": {
      "northeast": {
        "lat": 37.2216,
        "lng": 11.9999992
      },
      "southwest": {
        "lat": 18.9681469,
        "lng": -8.6676111
      }
    },
    "center": {
      "lat": 28.033886,
      "lng": 1.659626
    }
  },
  {
    "location_name": "Iceland",
    "sex_name": "Both",
    "age_name": "All Ages",
    "cause_name": "Drug use disorders",
    "year": 2017,
    "val": 13.18915783008329,
    "upper": 14.301588869576735,
    "lower": 12.199552667688586,
    "all_causes_val": 2203.945548239474,
    "population": 337470.541789902,
    "death_rate": 0.006530779061633111,
    "location_name_en": "Iceland",
    "location_name_de": "Island",
    "bounds": {
      "northeast": {
        "lat": 67.2466,
        "lng": -12.2388001
      },
      "southwest": {
        "lat": 62.4819,
        "lng": -26.2572999
      }
    },
    "center": {
      "lat": 64.963051,
      "lng": -19.020835
    }
  },
  {
    "location_name": "Kazakhstan",
    "sex_name": "Both",
    "age_name": "All Ages",
    "cause_name": "Drug use disorders",
    "year": 2017,
    "val": 788.170232408472,
    "upper": 893.98434714593,
    "lower": 701.5768363832892,
    "all_causes_val": 134591.65358481446,
    "population": 17904334.2102603,
    "death_rate": 0.007517266601719546,
    "location_name_en": "Kazakhstan",
    "location_name_de": "Kasachstan",
    "bounds": {
      "northeast": {
        "lat": 55.4419839,
        "lng": 87.315415
      },
      "southwest": {
        "lat": 40.5685841,
        "lng": 46.493672
      }
    },
    "center": {
      "lat": 48.019573,
      "lng": 66.923684
    }
  },
  {
    "location_name": "Cape Verde",
    "sex_name": "Both",
    "age_name": "All Ages",
    "cause_name": "Drug use disorders",
    "year": 2017,
    "val": 17.437172074491354,
    "upper": 20.357976067430716,
    "lower": 14.954418548194335,
    "all_causes_val": 3001.339103358731,
    "population": 545805.876217364,
    "death_rate": 0.005498913137687556,
    "location_name_en": "Cape Verde",
    "location_name_de": "Kap Verde",
    "bounds": {
      "northeast": {
        "lat": 17.3191764,
        "lng": -22.5933839
      },
      "southwest": {
        "lat": 14.7270733,
        "lng": -25.383911
      }
    },
    "center": {
      "lat": 16.5388,
      "lng": -23.0418
    }
  },
  {
    "location_name": "Ireland",
    "sex_name": "Both",
    "age_name": "All Ages",
    "cause_name": "Drug use disorders",
    "year": 2017,
    "val": 178.55906547495832,
    "upper": 198.01941125082868,
    "lower": 157.5645671675385,
    "all_causes_val": 30809.88389498116,
    "population": 4860552.38032325,
    "death_rate": 0.006338761828739341,
    "location_name_en": "Ireland",
    "location_name_de": "Irland",
    "bounds": {
      "northeast": {
        "lat": 55.38294149999999,
        "lng": -5.431909999999999
      },
      "southwest": {
        "lat": 51.4475448,
        "lng": -10.4800237
      }
    },
    "center": {
      "lat": 53.1423672,
      "lng": -7.692053599999999
    }
  },
  {
    "location_name": "Finland",
    "sex_name": "Both",
    "age_name": "All Ages",
    "cause_name": "Drug use disorders",
    "year": 2017,
    "val": 288.7639004184816,
    "upper": 316.7977831022585,
    "lower": 261.326876267521,
    "all_causes_val": 55071.11546341427,
    "population": 5517977.86056488,
    "death_rate": 0.009980307434176003,
    "location_name_en": "Finland",
    "location_name_de": "Finnland",
    "bounds": {
      "northeast": {
        "lat": 70.0922932,
        "lng": 31.5870999
      },
      "southwest": {
        "lat": 59.693623,
        "lng": 20.4565002
      }
    },
    "center": {
      "lat": 61.92410999999999,
      "lng": 25.7481511
    }
  },
  {
    "location_name": "Russian Federation",
    "sex_name": "Both",
    "age_name": "All Ages",
    "cause_name": "Drug use disorders",
    "year": 2017,
    "val": 9480.169264650538,
    "upper": 9944.145455714492,
    "lower": 9059.45097390751,
    "all_causes_val": 1834721.8725872417,
    "population": 146189867.401218,
    "death_rate": 0.012550267027412021,
    "location_name_en": "Russia",
    "location_name_de": "Russland",
    "bounds": {
      "northeast": {
        "lat": 70,
        "lng": 179
      },
      "southwest": {
        "lat": 40,
        "lng": 27
      }
    },
    "center": {
      "lat": 61.52401,
      "lng": 105.318756
    }
  },
  {
    "location_name": "United Kingdom",
    "sex_name": "Both",
    "age_name": "All Ages",
    "cause_name": "Drug use disorders",
    "year": 2017,
    "val": 3011.383997682917,
    "upper": 3118.604485870187,
    "lower": 2916.0543532299653,
    "all_causes_val": 608261.5054415703,
    "population": 66635515.4784118,
    "death_rate": 0.009128187890114416,
    "location_name_en": "United Kingdom",
    "location_name_de": "Vereinigtes Königreich",
    "bounds": {
      "northeast": {
        "lat": 61.5471111,
        "lng": 9.5844157
      },
      "southwest": {
        "lat": 47.5554486,
        "lng": -18.5319589
      }
    },
    "center": {
      "lat": 55.378051,
      "lng": -3.435973
    }
  },
  {
    "location_name": "Saudi Arabia",
    "sex_name": "Both",
    "age_name": "All Ages",
    "cause_name": "Drug use disorders",
    "year": 2017,
    "val": 467.0564542600616,
    "upper": 581.9263564529067,
    "lower": 377.8590692684676,
    "all_causes_val": 94588.1062340141,
    "population": 34444053.6719772,
    "death_rate": 0.002746137464968839,
    "location_name_en": "Saudi Arabia",
    "location_name_de": "Saudi-Arabien",
    "bounds": {
      "northeast": {
        "lat": 32.154284,
        "lng": 55.6666999
      },
      "southwest": {
        "lat": 16.0036,
        "lng": 34.4815001
      }
    },
    "center": {
      "lat": 23.885942,
      "lng": 45.079162
    }
  },
  {
    "location_name": "Denmark",
    "sex_name": "Both",
    "age_name": "All Ages",
    "cause_name": "Drug use disorders",
    "year": 2017,
    "val": 244.2198204851326,
    "upper": 268.726435082307,
    "lower": 222.12423528505764,
    "all_causes_val": 54215.63603208739,
    "population": 5732278.15046228,
    "death_rate": 0.00945795626259259,
    "location_name_en": "Denmark",
    "location_name_de": "Dänemark",
    "bounds": {
      "northeast": {
        "lat": 58.02846,
        "lng": 15.2298
      },
      "southwest": {
        "lat": 54.4317001,
        "lng": 7.855200099999999
      }
    },
    "center": {
      "lat": 56.26392,
      "lng": 9.501785
    }
  },
  {
    "location_name": "Luxembourg",
    "sex_name": "Both",
    "age_name": "All Ages",
    "cause_name": "Drug use disorders",
    "year": 2017,
    "val": 19.77499975518908,
    "upper": 22.309425103660516,
    "lower": 17.27736905479649,
    "all_causes_val": 4416.967090777893,
    "population": 590546.614173648,
    "death_rate": 0.007479455448167383,
    "location_name_en": "Luxembourg",
    "location_name_de": "Luxemburg",
    "bounds": {
      "northeast": {
        "lat": 50.18282,
        "lng": 6.530970099999999
      },
      "southwest": {
        "lat": 49.447779,
        "lng": 5.7356699
      }
    },
    "center": {
      "lat": 49.815273,
      "lng": 6.129582999999999
    }
  },
  {
    "location_name": "Sweden",
    "sex_name": "Both",
    "age_name": "All Ages",
    "cause_name": "Drug use disorders",
    "year": 2017,
    "val": 398.77845393304256,
    "upper": 432.46482834668,
    "lower": 367.7554863965341,
    "all_causes_val": 91940.99134960561,
    "population": 10044996.4815641,
    "death_rate": 0.009152914241269055,
    "location_name_en": "Sweden",
    "location_name_de": "Schweden",
    "bounds": {
      "northeast": {
        "lat": 69.0599709,
        "lng": 24.1773101
      },
      "southwest": {
        "lat": 55.0059799,
        "lng": 10.5798
      }
    },
    "center": {
      "lat": 60.12816100000001,
      "lng": 18.643501
    }
  },
  {
    "location_name": "Guatemala",
    "sex_name": "Both",
    "age_name": "All Ages",
    "cause_name": "Drug use disorders",
    "year": 2017,
    "val": 356.44962488498,
    "upper": 410.32818927017775,
    "lower": 309.0464396302952,
    "all_causes_val": 89106.43918368036,
    "population": 16924208.0440367,
    "death_rate": 0.005265028588151709,
    "location_name_en": "Guatemala",
    "location_name_de": "Guatemala",
    "bounds": {
      "northeast": {
        "lat": 17.815697,
        "lng": -88.1982001
      },
      "southwest": {
        "lat": 13.63,
        "lng": -92.2714
      }
    },
    "center": {
      "lat": 15.783471,
      "lng": -90.23075899999999
    }
  },
  {
    "location_name": "Puerto Rico",
    "sex_name": "Both",
    "age_name": "All Ages",
    "cause_name": "Drug use disorders",
    "year": 2017,
    "val": 132.48365442379225,
    "upper": 147.83378258362515,
    "lower": 118.47707969569642,
    "all_causes_val": 34519.649664422854,
    "population": 3665882.36443056,
    "death_rate": 0.009416464095891676,
    "location_name_en": "Puerto Rico",
    "location_name_de": "Puerto Rico",
    "bounds": {
      "northeast": {
        "lat": 18.5720479,
        "lng": -65.2105715
      },
      "southwest": {
        "lat": 17.8449191,
        "lng": -67.9611844
      }
    },
    "center": {
      "lat": 18.220833,
      "lng": -66.590149
    }
  },
  {
    "location_name": "Andorra",
    "sex_name": "Both",
    "age_name": "All Ages",
    "cause_name": "Drug use disorders",
    "year": 2017,
    "val": 2.1387030607744095,
    "upper": 2.567097821869786,
    "lower": 1.7834609582080625,
    "all_causes_val": 559.4858724959412,
    "population": 79966.0015708302,
    "death_rate": 0.0069965468012099415,
    "location_name_en": "Andorra",
    "location_name_de": "Andorra",
    "bounds": {
      "northeast": {
        "lat": 42.655791,
        "lng": 1.786639
      },
      "southwest": {
        "lat": 42.4287488,
        "lng": 1.4087052
      }
    },
    "center": {
      "lat": 42.506285,
      "lng": 1.521801
    }
  },
  {
    "location_name": "Kyrgyzstan",
    "sex_name": "Both",
    "age_name": "All Ages",
    "cause_name": "Drug use disorders",
    "year": 2017,
    "val": 129.12019256405972,
    "upper": 144.31911474459636,
    "lower": 115.53416959336684,
    "all_causes_val": 33901.24221956858,
    "population": 6368575.77183487,
    "death_rate": 0.005323206229169381,
    "location_name_en": "Kyrgyzstan",
    "location_name_de": "Kirgisistan",
    "bounds": {
      "northeast": {
        "lat": 43.2653569,
        "lng": 80.2281514
      },
      "southwest": {
        "lat": 39.180254,
        "lng": 69.250998
      }
    },
    "center": {
      "lat": 41.20438,
      "lng": 74.766098
    }
  },
  {
    "location_name": "Bangladesh",
    "sex_name": "Both",
    "age_name": "All Ages",
    "cause_name": "Drug use disorders",
    "year": 2017,
    "val": 3215.5834159143697,
    "upper": 3689.964863127216,
    "lower": 2796.134434314246,
    "all_causes_val": 887218.6314470702,
    "population": 156981002.091688,
    "death_rate": 0.005651757981063669,
    "location_name_en": "Bangladesh",
    "location_name_de": "Bangladesch",
    "bounds": {
      "northeast": {
        "lat": 26.633914,
        "lng": 92.6801153
      },
      "southwest": {
        "lat": 20.3794,
        "lng": 88.00861410000002
      }
    },
    "center": {
      "lat": 23.684994,
      "lng": 90.356331
    }
  },
  {
    "location_name": "Bahrain",
    "sex_name": "Both",
    "age_name": "All Ages",
    "cause_name": "Drug use disorders",
    "year": 2017,
    "val": 11.579395482734096,
    "upper": 13.61493489410905,
    "lower": 9.824649789535977,
    "all_causes_val": 3326.1728249568455,
    "population": 1470372.70796636,
    "death_rate": 0.002262129055399295,
    "location_name_en": "Bahrain",
    "location_name_de": "Bahrain",
    "bounds": {
      "northeast": {
        "lat": 26.3469001,
        "lng": 50.8509064
      },
      "southwest": {
        "lat": 25.5349999,
        "lng": 50.324246
      }
    },
    "center": {
      "lat": 26.0667,
      "lng": 50.5577
    }
  },
  {
    "location_name": "Iraq",
    "sex_name": "Both",
    "age_name": "All Ages",
    "cause_name": "Drug use disorders",
    "year": 2017,
    "val": 523.5469493629013,
    "upper": 609.3779290899921,
    "lower": 455.9818080052883,
    "all_causes_val": 152177.65908493203,
    "population": 43304441.5821135,
    "death_rate": 0.0035141351215988805,
    "location_name_en": "Iraq",
    "location_name_de": "Irak",
    "bounds": {
      "northeast": {
        "lat": 37.380645,
        "lng": 48.6350999
      },
      "southwest": {
        "lat": 29.0612079,
        "lng": 38.7936741
      }
    },
    "center": {
      "lat": 33.223191,
      "lng": 43.679291
    }
  },
  {
    "location_name": "France",
    "sex_name": "Both",
    "age_name": "All Ages",
    "cause_name": "Drug use disorders",
    "year": 2017,
    "val": 1971.3368125606564,
    "upper": 2131.1857297614006,
    "lower": 1814.120713750727,
    "all_causes_val": 579163.2916984223,
    "population": 65712599.2589352,
    "death_rate": 0.008813580625783437,
    "location_name_en": "France",
    "location_name_de": "Frankreich",
    "bounds": {
      "northeast": {
        "lat": 51.1241999,
        "lng": 9.6624999
      },
      "southwest": {
        "lat": 41.31433,
        "lng": -5.5591
      }
    },
    "center": {
      "lat": 46.227638,
      "lng": 2.213749
    }
  },
  {
    "location_name": "Tunisia",
    "sex_name": "Both",
    "age_name": "All Ages",
    "cause_name": "Drug use disorders",
    "year": 2017,
    "val": 223.66953986028076,
    "upper": 279.5265307346214,
    "lower": 172.64847398706408,
    "all_causes_val": 66264.2220760711,
    "population": 11442183.2382617,
    "death_rate": 0.005791221893256273,
    "location_name_en": "Tunisia",
    "location_name_de": "Tunesien",
    "bounds": {
      "northeast": {
        "lat": 37.5359,
        "lng": 11.599217
      },
      "southwest": {
        "lat": 30.2280339,
        "lng": 7.522311
      }
    },
    "center": {
      "lat": 33.886917,
      "lng": 9.537499
    }
  },
  {
    "location_name": "Kuwait",
    "sex_name": "Both",
    "age_name": "All Ages",
    "cause_name": "Drug use disorders",
    "year": 2017,
    "val": 25.981509575016336,
    "upper": 29.653139643795893,
    "lower": 22.519374018888055,
    "all_causes_val": 7732.700448983594,
    "population": 4262200.04533802,
    "death_rate": 0.0018142509424074536,
    "location_name_en": "Kuwait",
    "location_name_de": "Kuwait",
    "bounds": {
      "northeast": {
        "lat": 30.1036993,
        "lng": 48.5184
      },
      "southwest": {
        "lat": 28.5244463,
        "lng": 46.55303989999999
      }
    },
    "center": {
      "lat": 29.31166,
      "lng": 47.481766
    }
  },
  {
    "location_name": "Belarus",
    "sex_name": "Both",
    "age_name": "All Ages",
    "cause_name": "Drug use disorders",
    "year": 2017,
    "val": 403.8204560347239,
    "upper": 450.69820069187074,
    "lower": 356.90224543259166,
    "all_causes_val": 120940.78765004365,
    "population": 9491039.62812792,
    "death_rate": 0.012742628035354529,
    "location_name_en": "Belarus",
    "location_name_de": "Weißrussland",
    "bounds": {
      "northeast": {
        "lat": 56.1718719,
        "lng": 32.7768202
      },
      "southwest": {
        "lat": 51.26201100000001,
        "lng": 23.1783377
      }
    },
    "center": {
      "lat": 53.709807,
      "lng": 27.953389
    }
  },
  {
    "location_name": "Honduras",
    "sex_name": "Both",
    "age_name": "All Ages",
    "cause_name": "Drug use disorders",
    "year": 2017,
    "val": 142.98140543634335,
    "upper": 175.99721765591673,
    "lower": 113.59518786109953,
    "all_causes_val": 44427.874499215155,
    "population": 9498814.63842634,
    "death_rate": 0.004677201965757644,
    "location_name_en": "Honduras",
    "location_name_de": "Honduras",
    "bounds": {
      "northeast": {
        "lat": 17.4677999,
        "lng": -83.0621001
      },
      "southwest": {
        "lat": 12.9808201,
        "lng": -89.3564822
      }
    },
    "center": {
      "lat": 15.199999,
      "lng": -86.241905
    }
  },
  {
    "location_name": "Jordan",
    "sex_name": "Both",
    "age_name": "All Ages",
    "cause_name": "Drug use disorders",
    "year": 2017,
    "val": 88.09345553922853,
    "upper": 103.7403840064892,
    "lower": 74.0911579641939,
    "all_causes_val": 27515.49062606179,
    "population": 10648463.1476064,
    "death_rate": 0.002583987026545405,
    "location_name_en": "# 121",
    "location_name_de": "Jordan",
    "bounds": {
      "northeast": {
        "lat": 37.9987193802915,
        "lng": -97.33291341970849
      },
      "southwest": {
        "lat": 37.99602141970851,
        "lng": -97.33561138029151
      }
    },
    "center": {
      "lat": 37.9973704,
      "lng": -97.3342624
    }
  },
  {
    "location_name": "Lithuania",
    "sex_name": "Both",
    "age_name": "All Ages",
    "cause_name": "Drug use disorders",
    "year": 2017,
    "val": 128.0127117630008,
    "upper": 142.60261364239966,
    "lower": 112.74581494018015,
    "all_causes_val": 40898.85976975986,
    "population": 2847647.299027,
    "death_rate": 0.014362333349264992,
    "location_name_en": "Lithuania",
    "location_name_de": "Litauen",
    "bounds": {
      "northeast": {
        "lat": 56.45032089999999,
        "lng": 26.835523
      },
      "southwest": {
        "lat": 53.8967949,
        "lng": 20.931
      }
    },
    "center": {
      "lat": 55.169438,
      "lng": 23.881275
    }
  },
  {
    "location_name": "Switzerland",
    "sex_name": "Both",
    "age_name": "All Ages",
    "cause_name": "Drug use disorders",
    "year": 2017,
    "val": 201.3189296472019,
    "upper": 225.99994973566078,
    "lower": 179.42612975793693,
    "all_causes_val": 64565.073646009725,
    "population": 8593087.23582921,
    "death_rate": 0.0075136062132365134,
    "location_name_en": "Switzerland",
    "location_name_de": "Schweiz",
    "bounds": {
      "northeast": {
        "lat": 47.8084546,
        "lng": 10.4923401
      },
      "southwest": {
        "lat": 45.81792,
        "lng": 5.95608
      }
    },
    "center": {
      "lat": 46.818188,
      "lng": 8.227511999999999
    }
  },
  {
    "location_name": "Morocco",
    "sex_name": "Both",
    "age_name": "All Ages",
    "cause_name": "Drug use disorders",
    "year": 2017,
    "val": 663.8750727637624,
    "upper": 813.8300737964784,
    "lower": 527.5992076090298,
    "all_causes_val": 220711.28479259842,
    "population": 35488915.4878584,
    "death_rate": 0.006219161159436078,
    "location_name_en": "Morocco",
    "location_name_de": "Marokko",
    "bounds": {
      "northeast": {
        "lat": 35.9344,
        "lng": -0.9969759
      },
      "southwest": {
        "lat": 27.6672693,
        "lng": -13.3044001
      }
    },
    "center": {
      "lat": 31.791702,
      "lng": -7.092619999999999
    }
  },
  {
    "location_name": "Bermuda",
    "sex_name": "Both",
    "age_name": "All Ages",
    "cause_name": "Drug use disorders",
    "year": 2017,
    "val": 1.5306796926695156,
    "upper": 1.698781765796465,
    "lower": 1.3682178864170453,
    "all_causes_val": 526.2722920407928,
    "population": 65886.0750038621,
    "death_rate": 0.007987610310827346,
    "location_name_en": "Bermuda",
    "location_name_de": "Bermuda",
    "bounds": {
      "northeast": {
        "lat": 32.3961,
        "lng": -64.6413999
      },
      "southwest": {
        "lat": 32.2424975,
        "lng": -64.89139999999999
      }
    },
    "center": {
      "lat": 32.3078,
      "lng": -64.7505
    }
  },
  {
    "location_name": "Cameroon",
    "sex_name": "Both",
    "age_name": "All Ages",
    "cause_name": "Drug use disorders",
    "year": 2017,
    "val": 547.2980642270287,
    "upper": 699.9899009534269,
    "lower": 406.23621578110186,
    "all_causes_val": 191215.04806230552,
    "population": 27769738.26238,
    "death_rate": 0.006885734617144262,
    "location_name_en": "Cameroon",
    "location_name_de": "Kamerun",
    "bounds": {
      "northeast": {
        "lat": 13.083335,
        "lng": 16.1944081
      },
      "southwest": {
        "lat": 1.6559,
        "lng": 8.3936001
      }
    },
    "center": {
      "lat": 7.369721999999999,
      "lng": 12.354722
    }
  },
  {
    "location_name": "Ghana",
    "sex_name": "Both",
    "age_name": "All Ages",
    "cause_name": "Drug use disorders",
    "year": 2017,
    "val": 562.377729383175,
    "upper": 688.7362518897928,
    "lower": 456.37124521955104,
    "all_causes_val": 201638.6518283843,
    "population": 30205291.7137156,
    "death_rate": 0.006675606835368662,
    "location_name_en": "Ghana",
    "location_name_de": "Ghana",
    "bounds": {
      "northeast": {
        "lat": 11.1750308,
        "lng": 1.199972
      },
      "southwest": {
        "lat": 4.6339001,
        "lng": -3.2607859
      }
    },
    "center": {
      "lat": 7.946527,
      "lng": -1.023194
    }
  },
  {
    "location_name": "Peru",
    "sex_name": "Both",
    "age_name": "All Ages",
    "cause_name": "Drug use disorders",
    "year": 2017,
    "val": 384.7328612961413,
    "upper": 449.0372366904792,
    "lower": 325.2027402645239,
    "all_causes_val": 141758.55612471642,
    "population": 33219611.6638377,
    "death_rate": 0.0042673152702453875,
    "location_name_en": "Peru",
    "location_name_de": "Peru",
    "bounds": {
      "northeast": {
        "lat": -0.0387769,
        "lng": -68.65232879999999
      },
      "southwest": {
        "lat": -18.4483,
        "lng": -81.3867001
      }
    },
    "center": {
      "lat": -9.189967,
      "lng": -75.015152
    }
  },
  {
    "location_name": "Taiwan",
    "sex_name": "Both",
    "age_name": "All Ages",
    "cause_name": "Drug use disorders",
    "year": 2017,
    "val": 467.9612500252797,
    "upper": 516.4524760930625,
    "lower": 423.200694655794,
    "all_causes_val": 179636.58242364353,
    "population": 23583125.7150999,
    "death_rate": 0.007617165959838185,
    "location_name_en": "Taiwan",
    "location_name_de": "Taiwan",
    "bounds": {
      "northeast": {
        "lat": 26.4545,
        "lng": 123.5021012
      },
      "southwest": {
        "lat": 20.5170001,
        "lng": 116.6665
      }
    },
    "center": {
      "lat": 23.69781,
      "lng": 120.960515
    }
  },
  {
    "location_name": "Montenegro",
    "sex_name": "Both",
    "age_name": "All Ages",
    "cause_name": "Drug use disorders",
    "year": 2017,
    "val": 16.569051951981475,
    "upper": 18.583981810150874,
    "lower": 14.54115398401942,
    "all_causes_val": 6502.302865794328,
    "population": 626317.940217071,
    "death_rate": 0.010381792454389447,
    "location_name_en": "Montenegro",
    "location_name_de": "Montenegro",
    "bounds": {
      "northeast": {
        "lat": 43.558743,
        "lng": 20.352926
      },
      "southwest": {
        "lat": 41.8297,
        "lng": 18.4337921
      }
    },
    "center": {
      "lat": 42.708678,
      "lng": 19.37439
    }
  },
  {
    "location_name": "Ukraine",
    "sex_name": "Both",
    "age_name": "All Ages",
    "cause_name": "Drug use disorders",
    "year": 2017,
    "val": 1756.1243886990933,
    "upper": 1948.4405058646314,
    "lower": 1575.99995178263,
    "all_causes_val": 689878.8076412412,
    "population": 44689083.8155065,
    "death_rate": 0.015437300314531457,
    "location_name_en": "Ukraine",
    "location_name_de": "Ukraine",
    "bounds": {
      "northeast": {
        "lat": 52.3793713,
        "lng": 40.2204802
      },
      "southwest": {
        "lat": 44.2924,
        "lng": 22.137159
      }
    },
    "center": {
      "lat": 48.379433,
      "lng": 31.1655799
    }
  },
  {
    "location_name": "Belgium",
    "sex_name": "Both",
    "age_name": "All Ages",
    "cause_name": "Drug use disorders",
    "year": 2017,
    "val": 275.7258466044248,
    "upper": 300.6125885694777,
    "lower": 251.54431906312476,
    "all_causes_val": 108891.57899005283,
    "population": 11319410.8380034,
    "death_rate": 0.009619898115586015,
    "location_name_en": "Belgium",
    "location_name_de": "Belgien",
    "bounds": {
      "northeast": {
        "lat": 51.5051449,
        "lng": 6.408124099999999
      },
      "southwest": {
        "lat": 49.497013,
        "lng": 2.5240999
      }
    },
    "center": {
      "lat": 50.503887,
      "lng": 4.469936
    }
  },
  {
    "location_name": "Malaysia",
    "sex_name": "Both",
    "age_name": "All Ages",
    "cause_name": "Drug use disorders",
    "year": 2017,
    "val": 415.31288218341837,
    "upper": 473.19385828942734,
    "lower": 366.36535463695634,
    "all_causes_val": 165133.20435599904,
    "population": 30639827.7531561,
    "death_rate": 0.005389495191890864,
    "location_name_en": "Malaysia",
    "location_name_de": "Malaysia",
    "bounds": {
      "northeast": {
        "lat": 7.819846999999999,
        "lng": 119.813461
      },
      "southwest": {
        "lat": 0.461421,
        "lng": 99.42283599999999
      }
    },
    "center": {
      "lat": 4.210484,
      "lng": 101.975766
    }
  },
  {
    "location_name": "Virgin Islands, U.S.",
    "sex_name": "Both",
    "age_name": "All Ages",
    "cause_name": "Drug use disorders",
    "year": 2017,
    "val": 3.138523880302242,
    "upper": 3.649319517698996,
    "lower": 2.6526760552851334,
    "all_causes_val": 1256.8847524682822,
    "population": 104952.34914958,
    "death_rate": 0.011975765789453146,
    "location_name_en": "U.S. Virgin Islands",
    "location_name_de": "Amerikanische Jungferninseln",
    "bounds": {
      "northeast": {
        "lat": 18.6286677,
        "lng": -64.0804819
      },
      "southwest": {
        "lat": 17.5048927,
        "lng": -65.3968874
      }
    },
    "center": {
      "lat": 18.335765,
      "lng": -64.896335
    }
  },
  {
    "location_name": "Ecuador",
    "sex_name": "Both",
    "age_name": "All Ages",
    "cause_name": "Drug use disorders",
    "year": 2017,
    "val": 214.63269230002354,
    "upper": 240.0922873424266,
    "lower": 192.8874064564667,
    "all_causes_val": 87369.65924199428,
    "population": 16686189.2915103,
    "death_rate": 0.005236046272497144,
    "location_name_en": "Ecuador",
    "location_name_de": "Ecuador",
    "bounds": {
      "northeast": {
        "lat": 2.2955,
        "lng": -75.1887938
      },
      "southwest": {
        "lat": -5.0143509,
        "lng": -92.60379999999999
      }
    },
    "center": {
      "lat": -1.831239,
      "lng": -78.18340599999999
    }
  },
  {
    "location_name": "Argentina",
    "sex_name": "Both",
    "age_name": "All Ages",
    "cause_name": "Drug use disorders",
    "year": 2017,
    "val": 797.9120485309122,
    "upper": 892.969379391995,
    "lower": 714.9280398352404,
    "all_causes_val": 332465.3298372004,
    "population": 44265909.2005862,
    "death_rate": 0.007510640487031896,
    "location_name_en": "Argentina",
    "location_name_de": "Argentinien",
    "bounds": {
      "northeast": {
        "lat": -21.7810459,
        "lng": -53.637481
      },
      "southwest": {
        "lat": -55.1250224,
        "lng": -73.5603601
      }
    },
    "center": {
      "lat": -38.416097,
      "lng": -63.61667199999999
    }
  },
  {
    "location_name": "Swaziland",
    "sex_name": "Both",
    "age_name": "All Ages",
    "cause_name": "Drug use disorders",
    "year": 2017,
    "val": 24.263074022096532,
    "upper": 31.44653958292588,
    "lower": 18.103247509009257,
    "all_causes_val": 10124.385382526321,
    "population": 1124435.55566194,
    "death_rate": 0.00900397122053494,
    "location_name_en": "Swaziland",
    "location_name_de": "Swasiland",
    "bounds": {
      "northeast": {
        "lat": -25.71792,
        "lng": 32.1349067
      },
      "southwest": {
        "lat": -27.317402,
        "lng": 30.79064
      }
    },
    "center": {
      "lat": -26.522503,
      "lng": 31.465866
    }
  },
  {
    "location_name": "Qatar",
    "sex_name": "Both",
    "age_name": "All Ages",
    "cause_name": "Drug use disorders",
    "year": 2017,
    "val": 8.947623461849103,
    "upper": 11.278496053220021,
    "lower": 6.986758490076369,
    "all_causes_val": 3745.6390007390805,
    "population": 2747310.81080871,
    "death_rate": 0.0013633837809696161,
    "location_name_en": "Qatar",
    "location_name_de": "Katar",
    "bounds": {
      "northeast": {
        "lat": 26.2171,
        "lng": 51.7144001
      },
      "southwest": {
        "lat": 24.471118,
        "lng": 50.7211001
      }
    },
    "center": {
      "lat": 25.354826,
      "lng": 51.183884
    }
  },
  {
    "location_name": "Maldives",
    "sex_name": "Both",
    "age_name": "All Ages",
    "cause_name": "Drug use disorders",
    "year": 2017,
    "val": 2.652349313454363,
    "upper": 3.0989988594269424,
    "lower": 2.1273233946407646,
    "all_causes_val": 1149.3889337899168,
    "population": 458600.875016181,
    "death_rate": 0.0025062946810761374,
    "location_name_en": "Maldives",
    "location_name_de": "Malediven",
    "bounds": {
      "northeast": {
        "lat": 7.5149809,
        "lng": 74.7290038
      },
      "southwest": {
        "lat": -1.2907844,
        "lng": 71.75170899999999
      }
    },
    "center": {
      "lat": 3.202778,
      "lng": 73.22068
    }
  },
  {
    "location_name": "New Zealand",
    "sex_name": "Both",
    "age_name": "All Ages",
    "cause_name": "Drug use disorders",
    "year": 2017,
    "val": 74.68839732283482,
    "upper": 81.0428335317356,
    "lower": 68.81466371785322,
    "all_causes_val": 32621.442953381546,
    "population": 4448375.07387207,
    "death_rate": 0.007333339120836846,
    "location_name_en": "New Zealand",
    "location_name_de": "Neuseeland",
    "bounds": {
      "northeast": {
        "lat": -28.8773225,
        "lng": -175.1235077
      },
      "southwest": {
        "lat": -52.7224663,
        "lng": 165.7437641
      }
    },
    "center": {
      "lat": -40.900557,
      "lng": 174.885971
    }
  },
  {
    "location_name": "Gabon",
    "sex_name": "Both",
    "age_name": "All Ages",
    "cause_name": "Drug use disorders",
    "year": 2017,
    "val": 25.154193251820217,
    "upper": 31.51568446666222,
    "lower": 18.745051722379984,
    "all_causes_val": 11135.352932680653,
    "population": 1702719.80811545,
    "death_rate": 0.006539744754015124,
    "location_name_en": "Gabon",
    "location_name_de": "Gabun",
    "bounds": {
      "northeast": {
        "lat": 2.318109,
        "lng": 14.5269234
      },
      "southwest": {
        "lat": -4.1656,
        "lng": 8.421
      }
    },
    "center": {
      "lat": -0.803689,
      "lng": 11.609444
    }
  },
  {
    "location_name": "Bolivia",
    "sex_name": "Both",
    "age_name": "All Ages",
    "cause_name": "Drug use disorders",
    "year": 2017,
    "val": 148.3639060449951,
    "upper": 183.0161719930515,
    "lower": 114.29079811617686,
    "all_causes_val": 66605.3691746575,
    "population": 11542994.7104482,
    "death_rate": 0.005770198362333938,
    "location_name_en": "Bolivia",
    "location_name_de": "Bolivien",
    "bounds": {
      "northeast": {
        "lat": -9.669323,
        "lng": -57.453803
      },
      "southwest": {
        "lat": -22.8980899,
        "lng": -69.64498999999999
      }
    },
    "center": {
      "lat": -16.290154,
      "lng": -63.58865299999999
    }
  },
  {
    "location_name": "Cyprus",
    "sex_name": "Both",
    "age_name": "All Ages",
    "cause_name": "Drug use disorders",
    "year": 2017,
    "val": 16.98466872928652,
    "upper": 19.726705960086264,
    "lower": 14.59296754083429,
    "all_causes_val": 7737.816165169317,
    "population": 1262632.14825019,
    "death_rate": 0.006128321836167973,
    "location_name_en": "Cyprus",
    "location_name_de": "Zypern",
    "bounds": {
      "northeast": {
        "lat": 35.7071999,
        "lng": 34.60450000000001
      },
      "southwest": {
        "lat": 34.6304001,
        "lng": 32.2459
      }
    },
    "center": {
      "lat": 35.126413,
      "lng": 33.429859
    }
  },
  {
    "location_name": "Austria",
    "sex_name": "Both",
    "age_name": "All Ages",
    "cause_name": "Drug use disorders",
    "year": 2017,
    "val": 178.3891227261576,
    "upper": 195.68869362672905,
    "lower": 160.8644102631626,
    "all_causes_val": 81371.37953493644,
    "population": 8793125.43150511,
    "death_rate": 0.009253976890104272,
    "location_name_en": "Austria",
    "location_name_de": "Österreich",
    "bounds": {
      "northeast": {
        "lat": 49.0206081,
        "lng": 17.1607329
      },
      "southwest": {
        "lat": 46.37233579999999,
        "lng": 9.530783399999999
      }
    },
    "center": {
      "lat": 47.516231,
      "lng": 14.550072
    }
  },
  {
    "location_name": "Greenland",
    "sex_name": "Both",
    "age_name": "All Ages",
    "cause_name": "Drug use disorders",
    "year": 2017,
    "val": 0.9830811492722923,
    "upper": 1.1345815653016635,
    "lower": 0.8294486426378991,
    "all_causes_val": 448.65782940644266,
    "population": 56155.3269104691,
    "death_rate": 0.007989586279530659,
    "location_name_en": "Greenland",
    "location_name_de": "Grönland",
    "bounds": {
      "northeast": {
        "lat": 83.9702561,
        "lng": -8.2617199
      },
      "southwest": {
        "lat": 58.26329,
        "lng": -73.8281196
      }
    },
    "center": {
      "lat": 71.706936,
      "lng": -42.604303
    }
  },
  {
    "location_name": "Zimbabwe",
    "sex_name": "Both",
    "age_name": "All Ages",
    "cause_name": "Drug use disorders",
    "year": 2017,
    "val": 255.80195002879879,
    "upper": 313.49624464863695,
    "lower": 197.2152848141615,
    "all_causes_val": 117627.53254576428,
    "population": 14713754.3424919,
    "death_rate": 0.007994392852276141,
    "location_name_en": "Zimbabwe",
    "location_name_de": "Simbabwe",
    "bounds": {
      "northeast": {
        "lat": -15.6093188,
        "lng": 33.068236
      },
      "southwest": {
        "lat": -22.4219117,
        "lng": 25.237368
      }
    },
    "center": {
      "lat": -19.015438,
      "lng": 29.154857
    }
  },
  {
    "location_name": "China",
    "sex_name": "Both",
    "age_name": "All Ages",
    "cause_name": "Drug use disorders",
    "year": 2017,
    "val": 22445.15812589352,
    "upper": 23437.98581975759,
    "lower": 21464.486228260455,
    "all_causes_val": 10452104.19125356,
    "population": 1412480390.20934,
    "death_rate": 0.007399822513432898,
    "location_name_en": "China",
    "location_name_de": "China",
    "bounds": {
      "northeast": {
        "lat": 53.5609739,
        "lng": 134.7754563
      },
      "southwest": {
        "lat": 17.9996,
        "lng": 73.4994136
      }
    },
    "center": {
      "lat": 35.86166,
      "lng": 104.195397
    }
  },
  {
    "location_name": "Yemen",
    "sex_name": "Both",
    "age_name": "All Ages",
    "cause_name": "Drug use disorders",
    "year": 2017,
    "val": 353.6694034848244,
    "upper": 474.79790803461117,
    "lower": 253.7073831458947,
    "all_causes_val": 164695.35386264572,
    "population": 30449159.2929288,
    "death_rate": 0.005408863748198554,
    "location_name_en": "Yemen",
    "location_name_de": "Jemen",
    "bounds": {
      "northeast": {
        "lat": 18.9996331,
        "lng": 54.67899999999999
      },
      "southwest": {
        "lat": 11.7975,
        "lng": 41.70959999999999
      }
    },
    "center": {
      "lat": 15.552727,
      "lng": 48.516388
    }
  },
  {
    "location_name": "Germany",
    "sex_name": "Both",
    "age_name": "All Ages",
    "cause_name": "Drug use disorders",
    "year": 2017,
    "val": 2018.5928336966165,
    "upper": 2297.4288031642195,
    "lower": 1762.9744850714778,
    "all_causes_val": 947309.1694293078,
    "population": 83294523.7888545,
    "death_rate": 0.011373006607621253,
    "location_name_en": "Germany",
    "location_name_de": "Deutschland",
    "bounds": {
      "northeast": {
        "lat": 55.0815,
        "lng": 15.0418962
      },
      "southwest": {
        "lat": 47.2701115,
        "lng": 5.8663425
      }
    },
    "center": {
      "lat": 51.165691,
      "lng": 10.451526
    }
  },
  {
    "location_name": "Syria",
    "sex_name": "Both",
    "age_name": "All Ages",
    "cause_name": "Drug use disorders",
    "year": 2017,
    "val": 242.30085812028094,
    "upper": 290.771261253296,
    "lower": 201.63343048929804,
    "all_causes_val": 114382.68351952036,
    "population": 18131193.6607019,
    "death_rate": 0.006308612971656514,
    "location_name_en": "Syria",
    "location_name_de": "Syrien",
    "bounds": {
      "northeast": {
        "lat": 37.318693,
        "lng": 42.376309
      },
      "southwest": {
        "lat": 32.311136,
        "lng": 35.62869999999999
      }
    },
    "center": {
      "lat": 34.80207499999999,
      "lng": 38.996815
    }
  },
  {
    "location_name": "Costa Rica",
    "sex_name": "Both",
    "age_name": "All Ages",
    "cause_name": "Drug use disorders",
    "year": 2017,
    "val": 49.22386673804986,
    "upper": 54.113972672692675,
    "lower": 44.53124961482143,
    "all_causes_val": 23551.22803992005,
    "population": 4653733.77309046,
    "death_rate": 0.005060716660695463,
    "location_name_en": "Costa Rica",
    "location_name_de": "Costa Rica",
    "bounds": {
      "northeast": {
        "lat": 11.2196806,
        "lng": -82.51830009999999
      },
      "southwest": {
        "lat": 5.496099999999999,
        "lng": -87.09899999999999
      }
    },
    "center": {
      "lat": 9.748916999999999,
      "lng": -83.753428
    }
  },
  {
    "location_name": "Sudan",
    "sex_name": "Both",
    "age_name": "All Ages",
    "cause_name": "Drug use disorders",
    "year": 2017,
    "val": 433.31113321271766,
    "upper": 542.184009309417,
    "lower": 339.0990672541722,
    "all_causes_val": 209005.5058132136,
    "population": 40255550.5748627,
    "death_rate": 0.0051919673890567924,
    "location_name_en": "Sudan",
    "location_name_de": "Sudan",
    "bounds": {
      "northeast": {
        "lat": 22.224918,
        "lng": 38.69379989999999
      },
      "southwest": {
        "lat": 9.3472209,
        "lng": 21.8146345
      }
    },
    "center": {
      "lat": 12.862807,
      "lng": 30.217636
    }
  },
  {
    "location_name": "Togo",
    "sex_name": "Both",
    "age_name": "All Ages",
    "cause_name": "Drug use disorders",
    "year": 2017,
    "val": 104.53453194687698,
    "upper": 135.63488601845393,
    "lower": 78.27751644931121,
    "all_causes_val": 50468.384006369786,
    "population": 7516030.25407419,
    "death_rate": 0.006714765946958842,
    "location_name_en": "Togo",
    "location_name_de": "Togo",
    "bounds": {
      "northeast": {
        "lat": 11.139617,
        "lng": 1.8089071
      },
      "southwest": {
        "lat": 6.0812,
        "lng": -0.1440418
      }
    },
    "center": {
      "lat": 8.619543,
      "lng": 0.824782
    }
  },
  {
    "location_name": "Vietnam",
    "sex_name": "Both",
    "age_name": "All Ages",
    "cause_name": "Drug use disorders",
    "year": 2017,
    "val": 1252.1967225367478,
    "upper": 1498.5861152057628,
    "lower": 981.9513715300174,
    "all_causes_val": 606304.4328256818,
    "population": 96140732.1710466,
    "death_rate": 0.006306426205980926,
    "location_name_en": "Vietnam",
    "location_name_de": "Vietnam",
    "bounds": {
      "northeast": {
        "lat": 23.3926504,
        "lng": 109.6765
      },
      "southwest": {
        "lat": 8.1952001,
        "lng": 102.1439156
      }
    },
    "center": {
      "lat": 14.058324,
      "lng": 108.277199
    }
  },
  {
    "location_name": "Turkmenistan",
    "sex_name": "Both",
    "age_name": "All Ages",
    "cause_name": "Drug use disorders",
    "year": 2017,
    "val": 66.36807840972399,
    "upper": 75.95467057320475,
    "lower": 57.282716117239055,
    "all_causes_val": 32991.733266170326,
    "population": 4976883.15103904,
    "death_rate": 0.006628994948230307,
    "location_name_en": "Turkmenistan",
    "location_name_de": "Turkmenistan",
    "bounds": {
      "northeast": {
        "lat": 42.798844,
        "lng": 66.70735309999999
      },
      "southwest": {
        "lat": 35.12876,
        "lng": 52.3169
      }
    },
    "center": {
      "lat": 38.969719,
      "lng": 59.556278
    }
  },
  {
    "location_name": "Malta",
    "sex_name": "Both",
    "age_name": "All Ages",
    "cause_name": "Drug use disorders",
    "year": 2017,
    "val": 7.956520893885491,
    "upper": 8.83278081510961,
    "lower": 7.178945959718279,
    "all_causes_val": 3991.2084529328486,
    "population": 434472.34157536,
    "death_rate": 0.009186334942429394,
    "location_name_en": "Malta",
    "location_name_de": "Malta",
    "bounds": {
      "northeast": {
        "lat": 36.0853,
        "lng": 14.5765999
      },
      "southwest": {
        "lat": 35.79960000000001,
        "lng": 14.1801001
      }
    },
    "center": {
      "lat": 35.937496,
      "lng": 14.375416
    }
  },
  {
    "location_name": "Spain",
    "sex_name": "Both",
    "age_name": "All Ages",
    "cause_name": "Drug use disorders",
    "year": 2017,
    "val": 826.7495941123436,
    "upper": 907.0604354009951,
    "lower": 751.748589594295,
    "all_causes_val": 416519.7246624167,
    "population": 46389212.6629041,
    "death_rate": 0.008978805647966808,
    "location_name_en": "Spain",
    "location_name_de": "Spanien",
    "bounds": {
      "northeast": {
        "lat": 45.244,
        "lng": 5.098
      },
      "southwest": {
        "lat": 35.17300000000001,
        "lng": -12.524
      }
    },
    "center": {
      "lat": 40.46366700000001,
      "lng": -3.74922
    }
  },
  {
    "location_name": "Palestine",
    "sex_name": "Both",
    "age_name": "All Ages",
    "cause_name": "Drug use disorders",
    "year": 2017,
    "val": 28.66344039666577,
    "upper": 34.203561024670506,
    "lower": 24.964237813103306,
    "all_causes_val": 14447.75738505239,
    "population": 4852096.65229192,
    "death_rate": 0.0029776318198912826,
    "location_name_en": "Palestine",
    "location_name_de": "Palästina",
    "bounds": {
      "northeast": {
        "lat": 32.5520999,
        "lng": 35.5740521
      },
      "southwest": {
        "lat": 31.219691,
        "lng": 34.21010010000001
      }
    },
    "center": {
      "lat": 31.952162,
      "lng": 35.233154
    }
  },
  {
    "location_name": "Guyana",
    "sex_name": "Both",
    "age_name": "All Ages",
    "cause_name": "Drug use disorders",
    "year": 2017,
    "val": 10.983432398262838,
    "upper": 12.99410013299259,
    "lower": 9.161309927734768,
    "all_causes_val": 5558.660784600047,
    "population": 742302.328010887,
    "death_rate": 0.007488405431106934,
    "location_name_en": "Guyana",
    "location_name_de": "Guyana",
    "bounds": {
      "northeast": {
        "lat": 8.722199999999999,
        "lng": -56.49112
      },
      "southwest": {
        "lat": 1.164724,
        "lng": -61.414905
      }
    },
    "center": {
      "lat": 4.860416,
      "lng": -58.93018
    }
  },
  {
    "location_name": "Latvia",
    "sex_name": "Both",
    "age_name": "All Ages",
    "cause_name": "Drug use disorders",
    "year": 2017,
    "val": 54.67324122375124,
    "upper": 63.026226475783766,
    "lower": 46.81144027731043,
    "all_causes_val": 28053.916765353606,
    "population": 1945427.35691793,
    "death_rate": 0.014420439121303613,
    "location_name_en": "Latvia",
    "location_name_de": "Lettland",
    "bounds": {
      "northeast": {
        "lat": 58.0855688,
        "lng": 28.2414029
      },
      "southwest": {
        "lat": 55.6747769,
        "lng": 20.8465999
      }
    },
    "center": {
      "lat": 56.879635,
      "lng": 24.603189
    }
  },
  {
    "location_name": "Mexico",
    "sex_name": "Both",
    "age_name": "All Ages",
    "cause_name": "Drug use disorders",
    "year": 2017,
    "val": 1363.437818270247,
    "upper": 1411.441800812818,
    "lower": 1321.5028113564722,
    "all_causes_val": 711319.577012929,
    "population": 126569719.939461,
    "death_rate": 0.005619982230767021,
    "location_name_en": "Mexico",
    "location_name_de": "Mexiko",
    "bounds": {
      "northeast": {
        "lat": 32.7186534,
        "lng": -86.5887
      },
      "southwest": {
        "lat": 14.3895,
        "lng": -118.6523001
      }
    },
    "center": {
      "lat": 23.634501,
      "lng": -102.552784
    }
  },
  {
    "location_name": "Suriname",
    "sex_name": "Both",
    "age_name": "All Ages",
    "cause_name": "Drug use disorders",
    "year": 2017,
    "val": 8.167025020521658,
    "upper": 9.515942264181199,
    "lower": 6.9423502473597205,
    "all_causes_val": 4297.7115580589325,
    "population": 572463.16145942,
    "death_rate": 0.007507402829384652,
    "location_name_en": "Suriname",
    "location_name_de": "Suriname",
    "bounds": {
      "northeast": {
        "lat": 6.1295999,
        "lng": -53.94289999999999
      },
      "southwest": {
        "lat": 1.837306,
        "lng": -58.07050590000001
      }
    },
    "center": {
      "lat": 3.919305,
      "lng": -56.027783
    }
  },
  {
    "location_name": "Mauritania",
    "sex_name": "Both",
    "age_name": "All Ages",
    "cause_name": "Drug use disorders",
    "year": 2017,
    "val": 38.00943945232873,
    "upper": 47.39800440686973,
    "lower": 29.56073925102649,
    "all_causes_val": 20049.9670862653,
    "population": 3913921.55193768,
    "death_rate": 0.005122730954160051,
    "location_name_en": "Mauritania",
    "location_name_de": "Mauretanien",
    "bounds": {
      "northeast": {
        "lat": 27.3158916,
        "lng": -4.833334799999999
      },
      "southwest": {
        "lat": 14.721273,
        "lng": -17.0687276
      }
    },
    "center": {
      "lat": 21.00789,
      "lng": -10.940835
    }
  },
  {
    "location_name": "Mongolia",
    "sex_name": "Both",
    "age_name": "All Ages",
    "cause_name": "Drug use disorders",
    "year": 2017,
    "val": 40.129915593430816,
    "upper": 46.988207406092755,
    "lower": 33.458967248068305,
    "all_causes_val": 21210.01455054702,
    "population": 3251425.53316715,
    "death_rate": 0.0065232970382338,
    "location_name_en": "Mongolia",
    "location_name_de": "Mongolei",
    "bounds": {
      "northeast": {
        "lat": 52.148355,
        "lng": 119.9315098
      },
      "southwest": {
        "lat": 41.581833,
        "lng": 87.7344789
      }
    },
    "center": {
      "lat": 46.862496,
      "lng": 103.846656
    }
  },
  {
    "location_name": "Congo",
    "sex_name": "Both",
    "age_name": "All Ages",
    "cause_name": "Drug use disorders",
    "year": 2017,
    "val": 70.76420302444565,
    "upper": 90.91226996605403,
    "lower": 51.73297284587715,
    "all_causes_val": 37911.61084852652,
    "population": 4913072.3787746,
    "death_rate": 0.007716477170642109,
    "location_name_en": "Democratic Republic of the Congo",
    "location_name_de": "Demokratische Republik Kongo",
    "bounds": {
      "northeast": {
        "lat": 5.3920029,
        "lng": 31.314612
      },
      "southwest": {
        "lat": -13.4590349,
        "lng": 12.1454
      }
    },
    "center": {
      "lat": -4.038333,
      "lng": 21.758664
    }
  },
  {
    "location_name": "Botswana",
    "sex_name": "Both",
    "age_name": "All Ages",
    "cause_name": "Drug use disorders",
    "year": 2017,
    "val": 26.133021133593818,
    "upper": 31.358516394448287,
    "lower": 21.461094639355203,
    "all_causes_val": 14257.946329847937,
    "population": 2281842.99145463,
    "death_rate": 0.006248434437971026,
    "location_name_en": "Botswana",
    "location_name_de": "Botsuana",
    "bounds": {
      "northeast": {
        "lat": -17.7781369,
        "lng": 29.375304
      },
      "southwest": {
        "lat": -26.9075448,
        "lng": 19.998903
      }
    },
    "center": {
      "lat": -22.328474,
      "lng": 24.684866
    }
  },
  {
    "location_name": "The Gambia",
    "sex_name": "Both",
    "age_name": "All Ages",
    "cause_name": "Drug use disorders",
    "year": 2017,
    "val": 24.916924786156823,
    "upper": 33.599308067305245,
    "lower": 18.010426281513617,
    "all_causes_val": 13652.372808136182,
    "population": 2132509.54239919,
    "death_rate": 0.006402021907379845,
    "location_name_en": "The Gambia",
    "location_name_de": "Gambia",
    "bounds": {
      "northeast": {
        "lat": 13.825058,
        "lng": -13.7913862
      },
      "southwest": {
        "lat": 13.0098999,
        "lng": -16.9464001
      }
    },
    "center": {
      "lat": 13.443182,
      "lng": -15.310139
    }
  },
  {
    "location_name": "Dominican Republic",
    "sex_name": "Both",
    "age_name": "All Ages",
    "cause_name": "Drug use disorders",
    "year": 2017,
    "val": 120.71151821526159,
    "upper": 141.65440641073073,
    "lower": 98.47759370327017,
    "all_causes_val": 67052.56531838792,
    "population": 10451749.6838031,
    "death_rate": 0.006415439265857864,
    "location_name_en": "Dominican Republic",
    "location_name_de": "Dominikanische Republik",
    "bounds": {
      "northeast": {
        "lat": 19.9786989,
        "lng": -68.25260010000001
      },
      "southwest": {
        "lat": 17.3611001,
        "lng": -72.0075099
      }
    },
    "center": {
      "lat": 18.735693,
      "lng": -70.162651
    }
  },
  {
    "location_name": "The Bahamas",
    "sex_name": "Both",
    "age_name": "All Ages",
    "cause_name": "Drug use disorders",
    "year": 2017,
    "val": 4.468331483950082,
    "upper": 5.185255186043062,
    "lower": 3.8580621746427157,
    "all_causes_val": 2517.1070019440717,
    "population": 375440.527859965,
    "death_rate": 0.006704409394190186,
    "location_name_en": "The Bahamas",
    "location_name_de": "Bahamas",
    "bounds": {
      "northeast": {
        "lat": 27.444104,
        "lng": -70.6762782
      },
      "southwest": {
        "lat": 21.4248332,
        "lng": -81.257154
      }
    },
    "center": {
      "lat": 25.03428,
      "lng": -77.39627999999999
    }
  },
  {
    "location_name": "Mauritius",
    "sex_name": "Both",
    "age_name": "All Ages",
    "cause_name": "Drug use disorders",
    "year": 2017,
    "val": 17.654977092948673,
    "upper": 20.24647230730942,
    "lower": 15.483357021527867,
    "all_causes_val": 10332.646187656645,
    "population": 1272111.99219805,
    "death_rate": 0.008122434385515954,
    "location_name_en": "Mauritius",
    "location_name_de": "Mauritius",
    "bounds": {
      "northeast": {
        "lat": -18.7763,
        "lng": 59.5844
      },
      "southwest": {
        "lat": -21.637,
        "lng": 55.7666
      }
    },
    "center": {
      "lat": -20.348404,
      "lng": 57.55215200000001
    }
  },
  {
    "location_name": "Uzbekistan",
    "sex_name": "Both",
    "age_name": "All Ages",
    "cause_name": "Drug use disorders",
    "year": 2017,
    "val": 342.78486690410625,
    "upper": 399.3753685622056,
    "lower": 294.80604459659196,
    "all_causes_val": 205264.84444114155,
    "population": 32236895.1499448,
    "death_rate": 0.0063673887788009585,
    "location_name_en": "Uzbekistan",
    "location_name_de": "Usbekistan",
    "bounds": {
      "northeast": {
        "lat": 45.590075,
        "lng": 73.148946
      },
      "southwest": {
        "lat": 37.1722571,
        "lng": 55.9982179
      }
    },
    "center": {
      "lat": 41.377491,
      "lng": 64.585262
    }
  },
  {
    "location_name": "Oman",
    "sex_name": "Both",
    "age_name": "All Ages",
    "cause_name": "Drug use disorders",
    "year": 2017,
    "val": 18.53098080923015,
    "upper": 24.192094669830443,
    "lower": 14.052986850370404,
    "all_causes_val": 11176.805976824942,
    "population": 4535815.19361571,
    "death_rate": 0.002464122875322746,
    "location_name_en": "Oman",
    "location_name_de": "Oman",
    "bounds": {
      "northeast": {
        "lat": 26.4361001,
        "lng": 60.30399999999999
      },
      "southwest": {
        "lat": 16.4571999,
        "lng": 52.0000019
      }
    },
    "center": {
      "lat": 21.4735329,
      "lng": 55.975413
    }
  },
  {
    "location_name": "Brazil",
    "sex_name": "Both",
    "age_name": "All Ages",
    "cause_name": "Drug use disorders",
    "year": 2017,
    "val": 2234.592173524669,
    "upper": 2301.6226393015804,
    "lower": 2172.6549492720264,
    "all_causes_val": 1349150.4221394218,
    "population": 211812707.286102,
    "death_rate": 0.00636954429895031,
    "location_name_en": "Brazil",
    "location_name_de": "Brasilien",
    "bounds": {
      "northeast": {
        "lat": 5.2717863,
        "lng": -28.650543
      },
      "southwest": {
        "lat": -34.0891,
        "lng": -73.9828169
      }
    },
    "center": {
      "lat": -14.235004,
      "lng": -51.92528
    }
  },
  {
    "location_name": "Greece",
    "sex_name": "Both",
    "age_name": "All Ages",
    "cause_name": "Drug use disorders",
    "year": 2017,
    "val": 197.4605957626476,
    "upper": 220.80745289675883,
    "lower": 177.17586502827513,
    "all_causes_val": 120257.57546648482,
    "population": 10402318.5296505,
    "death_rate": 0.011560651130198113,
    "location_name_en": "Greece",
    "location_name_de": "Griechenland",
    "bounds": {
      "northeast": {
        "lat": 41.7488784,
        "lng": 29.6527999
      },
      "southwest": {
        "lat": 34.5428,
        "lng": 19.3098
      }
    },
    "center": {
      "lat": 39.074208,
      "lng": 21.824312
    }
  },
  {
    "location_name": "Cote d'Ivoire",
    "sex_name": "Both",
    "age_name": "All Ages",
    "cause_name": "Drug use disorders",
    "year": 2017,
    "val": 303.69694736505267,
    "upper": 378.99090960706997,
    "lower": 235.75929606784962,
    "all_causes_val": 185069.07267057963,
    "population": 24965279.186628,
    "death_rate": 0.007413058403516955,
    "location_name_en": "Côte d'Ivoire",
    "location_name_de": "Elfenbeinküste",
    "bounds": {
      "northeast": {
        "lat": 10.7400149,
        "lng": -2.493031
      },
      "southwest": {
        "lat": 4.193,
        "lng": -8.6020589
      }
    },
    "center": {
      "lat": 7.539988999999999,
      "lng": -5.547079999999999
    }
  },
  {
    "location_name": "Namibia",
    "sex_name": "Both",
    "age_name": "All Ages",
    "cause_name": "Drug use disorders",
    "year": 2017,
    "val": 27.580518705512016,
    "upper": 35.785917014779095,
    "lower": 20.803450609011843,
    "all_causes_val": 17000.852741055285,
    "population": 2353502.57540904,
    "death_rate": 0.007223638894085564,
    "location_name_en": "Namibia",
    "location_name_de": "Namibia",
    "bounds": {
      "northeast": {
        "lat": -16.9634849,
        "lng": 25.261752
      },
      "southwest": {
        "lat": -28.97063889999999,
        "lng": 11.4696999
      }
    },
    "center": {
      "lat": -22.95764,
      "lng": 18.49041
    }
  },
  {
    "location_name": "Antigua and Barbuda",
    "sex_name": "Both",
    "age_name": "All Ages",
    "cause_name": "Drug use disorders",
    "year": 2017,
    "val": 0.9125196783982927,
    "upper": 1.0249807424366293,
    "lower": 0.8173633248562685,
    "all_causes_val": 563.3243667609964,
    "population": 88957.3530462172,
    "death_rate": 0.0063325216800046305,
    "location_name_en": "Antigua and Barbuda",
    "location_name_de": "Antigua und Barbuda",
    "bounds": {
      "northeast": {
        "lat": 17.7499946,
        "lng": -61.6394
      },
      "southwest": {
        "lat": 16.9018,
        "lng": -62.38100009999999
      }
    },
    "center": {
      "lat": 17.060816,
      "lng": -61.796428
    }
  },
  {
    "location_name": "Brunei",
    "sex_name": "Both",
    "age_name": "All Ages",
    "cause_name": "Drug use disorders",
    "year": 2017,
    "val": 3.0171773252452594,
    "upper": 3.391062812988173,
    "lower": 2.6945906202262924,
    "all_causes_val": 1875.0299033880876,
    "population": 432450.733521696,
    "death_rate": 0.004335823154047252,
    "location_name_en": "Brunei",
    "location_name_de": "Brunei Darussalam",
    "bounds": {
      "northeast": {
        "lat": 5.0978001,
        "lng": 115.3639552
      },
      "southwest": {
        "lat": 4.002460999999999,
        "lng": 114.0752
      }
    },
    "center": {
      "lat": 4.535277,
      "lng": 114.727669
    }
  },
  {
    "location_name": "Sao Tome and Principe",
    "sex_name": "Both",
    "age_name": "All Ages",
    "cause_name": "Drug use disorders",
    "year": 2017,
    "val": 1.6650149321458165,
    "upper": 2.141457901254515,
    "lower": 1.2092270718782816,
    "all_causes_val": 1052.6832546462194,
    "population": 200205.978303347,
    "death_rate": 0.005258001102500649,
    "location_name_en": "São Tomé and Príncipe",
    "location_name_de": "São Tomé und Príncipe",
    "bounds": {
      "northeast": {
        "lat": 1.8961687,
        "lng": 7.658843900000001
      },
      "southwest": {
        "lat": -0.09887689999999999,
        "lng": 6.328125
      }
    },
    "center": {
      "lat": 0.18636,
      "lng": 6.613080999999999
    }
  },
  {
    "location_name": "North Korea",
    "sex_name": "Both",
    "age_name": "All Ages",
    "cause_name": "Drug use disorders",
    "year": 2017,
    "val": 370.3858355807815,
    "upper": 438.08078207736077,
    "lower": 304.53392471035147,
    "all_causes_val": 235062.45339909778,
    "population": 25716643.8125043,
    "death_rate": 0.00914047941531167,
    "location_name_en": "North Korea",
    "location_name_de": "Nordkorea",
    "bounds": {
      "northeast": {
        "lat": 43.01159,
        "lng": 130.6990167
      },
      "southwest": {
        "lat": 37.5892001,
        "lng": 124.1491605
      }
    },
    "center": {
      "lat": 40.339852,
      "lng": 127.510093
    }
  },
  {
    "location_name": "Sri Lanka",
    "sex_name": "Both",
    "age_name": "All Ages",
    "cause_name": "Drug use disorders",
    "year": 2017,
    "val": 194.7625573509498,
    "upper": 234.88015617704446,
    "lower": 158.54765832213366,
    "all_causes_val": 125996.51110484505,
    "population": 21596437.4934245,
    "death_rate": 0.005834134039153791,
    "location_name_en": "Sri Lanka",
    "location_name_de": "Sri Lanka",
    "bounds": {
      "northeast": {
        "lat": 10.03377,
        "lng": 82.14479999999999
      },
      "southwest": {
        "lat": 5.6816,
        "lng": 79.26769999999999
      }
    },
    "center": {
      "lat": 7.873053999999999,
      "lng": 80.77179699999999
    }
  },
  {
    "location_name": "Israel",
    "sex_name": "Both",
    "age_name": "All Ages",
    "cause_name": "Drug use disorders",
    "year": 2017,
    "val": 70.20176304061842,
    "upper": 78.02574849122576,
    "lower": 63.453151463265186,
    "all_causes_val": 45677.0416584045,
    "population": 8949198.03856104,
    "death_rate": 0.005104037418949442,
    "location_name_en": "Israel",
    "location_name_de": "Israel",
    "bounds": {
      "northeast": {
        "lat": 33.33280500000001,
        "lng": 35.896244
      },
      "southwest": {
        "lat": 29.47969999999999,
        "lng": 34.2673871
      }
    },
    "center": {
      "lat": 31.046051,
      "lng": 34.851612
    }
  },
  {
    "location_name": "Netherlands",
    "sex_name": "Both",
    "age_name": "All Ages",
    "cause_name": "Drug use disorders",
    "year": 2017,
    "val": 233.43862188400837,
    "upper": 252.95417555883031,
    "lower": 214.75485900438574,
    "all_causes_val": 152061.64052563105,
    "population": 17029097.5555113,
    "death_rate": 0.008929518433372167,
    "location_name_en": "Netherlands",
    "location_name_de": "Niederlande",
    "bounds": {
      "northeast": {
        "lat": 53.6756,
        "lng": 7.227140500000001
      },
      "southwest": {
        "lat": 50.7503837,
        "lng": 3.3316
      }
    },
    "center": {
      "lat": 52.132633,
      "lng": 5.291265999999999
    }
  },
  {
    "location_name": "Thailand",
    "sex_name": "Both",
    "age_name": "All Ages",
    "cause_name": "Drug use disorders",
    "year": 2017,
    "val": 714.803108991706,
    "upper": 840.4106727687519,
    "lower": 609.3571554475312,
    "all_causes_val": 467227.98251778126,
    "population": 70626062.6159991,
    "death_rate": 0.006615517915222686,
    "location_name_en": "Thailand",
    "location_name_de": "Thailand",
    "bounds": {
      "northeast": {
        "lat": 20.465143,
        "lng": 105.636812
      },
      "southwest": {
        "lat": 5.613038,
        "lng": 97.343396
      }
    },
    "center": {
      "lat": 15.870032,
      "lng": 100.992541
    }
  },
  {
    "location_name": "Afghanistan",
    "sex_name": "Both",
    "age_name": "All Ages",
    "cause_name": "Drug use disorders",
    "year": 2017,
    "val": 346.3390094484288,
    "upper": 433.22164626633594,
    "lower": 271.11600818499164,
    "all_causes_val": 226650.05548051314,
    "population": 32854766.5837302,
    "death_rate": 0.006898544078920685,
    "location_name_en": "Afghanistan",
    "location_name_de": "Afghanistan",
    "bounds": {
      "northeast": {
        "lat": 38.49087670000001,
        "lng": 74.8898619
      },
      "southwest": {
        "lat": 29.3772,
        "lng": 60.5170005
      }
    },
    "center": {
      "lat": 33.93911,
      "lng": 67.709953
    }
  },
  {
    "location_name": "South Africa",
    "sex_name": "Both",
    "age_name": "All Ages",
    "cause_name": "Drug use disorders",
    "year": 2017,
    "val": 719.5076842780018,
    "upper": 784.2191469703515,
    "lower": 664.1057750595876,
    "all_causes_val": 475367.45804488356,
    "population": 54952859.6877336,
    "death_rate": 0.0086504589705819,
    "location_name_en": "South Africa",
    "location_name_de": "Südafrika",
    "bounds": {
      "northeast": {
        "lat": -22.1254239,
        "lng": 38.2216904
      },
      "southwest": {
        "lat": -47.1313489,
        "lng": 16.2816999
      }
    },
    "center": {
      "lat": -30.559482,
      "lng": 22.937506
    }
  },
  {
    "location_name": "Georgia",
    "sex_name": "Both",
    "age_name": "All Ages",
    "cause_name": "Drug use disorders",
    "year": 2017,
    "val": 76.26420439124098,
    "upper": 83.02366820680189,
    "lower": 69.99559041790708,
    "all_causes_val": 50563.74202548814,
    "population": 3691321.81858594,
    "death_rate": 0.013698004267982775,
    "location_name_en": "Georgia",
    "location_name_de": "Georgia",
    "bounds": {
      "northeast": {
        "lat": 35.0006589,
        "lng": -80.751429
      },
      "southwest": {
        "lat": 30.3555908,
        "lng": -85.6051649
      }
    },
    "center": {
      "lat": 32.1656221,
      "lng": -82.9000751
    }
  },
  {
    "location_name": "Lesotho",
    "sex_name": "Both",
    "age_name": "All Ages",
    "cause_name": "Drug use disorders",
    "year": 2017,
    "val": 37.7734299918801,
    "upper": 47.32169341849274,
    "lower": 29.170561310073158,
    "all_causes_val": 25216.91565434806,
    "population": 1947578.24508562,
    "death_rate": 0.01294783186143028,
    "location_name_en": "Lesotho",
    "location_name_de": "Lesotho",
    "bounds": {
      "northeast": {
        "lat": -28.5708011,
        "lng": 29.4557087
      },
      "southwest": {
        "lat": -30.6755788,
        "lng": 27.011231
      }
    },
    "center": {
      "lat": -29.609988,
      "lng": 28.233608
    }
  },
  {
    "location_name": "El Salvador",
    "sex_name": "Both",
    "age_name": "All Ages",
    "cause_name": "Drug use disorders",
    "year": 2017,
    "val": 61.69917956192111,
    "upper": 73.16861643966423,
    "lower": 51.934118305663624,
    "all_causes_val": 41517.775540977505,
    "population": 6086946.8978724,
    "death_rate": 0.006820788194404886,
    "location_name_en": "El Salvador",
    "location_name_de": "El Salvador",
    "bounds": {
      "northeast": {
        "lat": 14.4505567,
        "lng": -87.6682
      },
      "southwest": {
        "lat": 13.0473999,
        "lng": -90.19229999999999
      }
    },
    "center": {
      "lat": 13.794185,
      "lng": -88.89653
    }
  },
  {
    "location_name": "Armenia",
    "sex_name": "Both",
    "age_name": "All Ages",
    "cause_name": "Drug use disorders",
    "year": 2017,
    "val": 41.992405407253926,
    "upper": 45.99343466846778,
    "lower": 38.36038366653203,
    "all_causes_val": 28294.130461731314,
    "population": 3027231.43031573,
    "death_rate": 0.009346536963901808,
    "location_name_en": "Armenia",
    "location_name_de": "Armenien",
    "bounds": {
      "northeast": {
        "lat": 41.300993,
        "lng": 46.6342219
      },
      "southwest": {
        "lat": 38.840244,
        "lng": 43.4472601
      }
    },
    "center": {
      "lat": 40.069099,
      "lng": 45.038189
    }
  },
  {
    "location_name": "Dominica",
    "sex_name": "Both",
    "age_name": "All Ages",
    "cause_name": "Drug use disorders",
    "year": 2017,
    "val": 1.011963884658952,
    "upper": 1.1242332468431946,
    "lower": 0.9097602212334486,
    "all_causes_val": 687.8771962972756,
    "population": 68933.1144715051,
    "death_rate": 0.00997890783799742,
    "location_name_en": "Dominica",
    "location_name_de": "Dominica",
    "bounds": {
      "northeast": {
        "lat": 15.6485199,
        "lng": -61.23090180000001
      },
      "southwest": {
        "lat": 15.2042266,
        "lng": -61.484108
      }
    },
    "center": {
      "lat": 15.414999,
      "lng": -61.37097600000001
    }
  },
  {
    "location_name": "Senegal",
    "sex_name": "Both",
    "age_name": "All Ages",
    "cause_name": "Drug use disorders",
    "year": 2017,
    "val": 128.4097932416768,
    "upper": 155.90922154336613,
    "lower": 104.26757970538674,
    "all_causes_val": 87598.8296660664,
    "population": 14688033.8682018,
    "death_rate": 0.005963958856039239,
    "location_name_en": "Senegal",
    "location_name_de": "Senegal",
    "bounds": {
      "northeast": {
        "lat": 16.6929572,
        "lng": -11.3457683
      },
      "southwest": {
        "lat": 12.2649001,
        "lng": -17.6879999
      }
    },
    "center": {
      "lat": 14.497401,
      "lng": -14.452362
    }
  },
  {
    "location_name": "Croatia",
    "sex_name": "Both",
    "age_name": "All Ages",
    "cause_name": "Drug use disorders",
    "year": 2017,
    "val": 74.54803239210779,
    "upper": 82.07294145149245,
    "lower": 67.99479613683462,
    "all_causes_val": 51210.60943917261,
    "population": 4275495.81821378,
    "death_rate": 0.011977700743154372,
    "location_name_en": "Croatia",
    "location_name_de": "Kroatien",
    "bounds": {
      "northeast": {
        "lat": 46.5549857,
        "lng": 19.4480523
      },
      "southwest": {
        "lat": 42.3385087,
        "lng": 13.3649
      }
    },
    "center": {
      "lat": 45.1,
      "lng": 15.2000001
    }
  },
  {
    "location_name": "Marshall Islands",
    "sex_name": "Both",
    "age_name": "All Ages",
    "cause_name": "Drug use disorders",
    "year": 2017,
    "val": 0.5987409477186928,
    "upper": 0.7286806645638617,
    "lower": 0.48472560682532545,
    "all_causes_val": 415.0576149167002,
    "population": 56310.6479049249,
    "death_rate": 0.007370854897949051,
    "location_name_en": "Marshall Islands",
    "location_name_de": "Marshallinseln",
    "bounds": {
      "northeast": {
        "lat": 15.0190749,
        "lng": 172.5732421
      },
      "southwest": {
        "lat": 4.1601583,
        "lng": 159.8840332
      }
    },
    "center": {
      "lat": 7.131474,
      "lng": 171.184478
    }
  },
  {
    "location_name": "Guinea-Bissau",
    "sex_name": "Both",
    "age_name": "All Ages",
    "cause_name": "Drug use disorders",
    "year": 2017,
    "val": 22.352483326130372,
    "upper": 29.36352359029582,
    "lower": 16.45458568766647,
    "all_causes_val": 15504.474535477158,
    "population": 1855540.47728839,
    "death_rate": 0.008355772738590297,
    "location_name_en": "Guinea-Bissau",
    "location_name_de": "Guinea-Bissau",
    "bounds": {
      "northeast": {
        "lat": 12.6869468,
        "lng": -13.6265235
      },
      "southwest": {
        "lat": 10.7146,
        "lng": -16.9518999
      }
    },
    "center": {
      "lat": 11.803749,
      "lng": -15.180413
    }
  },
  {
    "location_name": "Trinidad and Tobago",
    "sex_name": "Both",
    "age_name": "All Ages",
    "cause_name": "Drug use disorders",
    "year": 2017,
    "val": 16.384926257542638,
    "upper": 20.342640029202546,
    "lower": 12.842618732291875,
    "all_causes_val": 11408.591157925579,
    "population": 1391804.82775593,
    "death_rate": 0.008196976278865313,
    "location_name_en": "Trinidad and Tobago",
    "location_name_de": "Trinidad und Tobago",
    "bounds": {
      "northeast": {
        "lat": 11.4004,
        "lng": -60.45089989999999
      },
      "southwest": {
        "lat": 9.9930001,
        "lng": -61.9725001
      }
    },
    "center": {
      "lat": 10.691803,
      "lng": -61.222503
    }
  },
  {
    "location_name": "Equatorial Guinea",
    "sex_name": "Both",
    "age_name": "All Ages",
    "cause_name": "Drug use disorders",
    "year": 2017,
    "val": 10.348022134262203,
    "upper": 14.946218617801833,
    "lower": 7.119648173956616,
    "all_causes_val": 7261.563150108964,
    "population": 1345030.91787417,
    "death_rate": 0.005398807606286041,
    "location_name_en": "Equatorial Guinea",
    "location_name_de": "Äquatorialguinea",
    "bounds": {
      "northeast": {
        "lat": 3.8355,
        "lng": 11.3333
      },
      "southwest": {
        "lat": -1.5475,
        "lng": 5.541900099999999
      }
    },
    "center": {
      "lat": 1.650801,
      "lng": 10.267895
    }
  },
  {
    "location_name": "Grenada",
    "sex_name": "Both",
    "age_name": "All Ages",
    "cause_name": "Drug use disorders",
    "year": 2017,
    "val": 1.6241168424911774,
    "upper": 1.7983371132992152,
    "lower": 1.4683089857144427,
    "all_causes_val": 1141.363101587185,
    "population": 110878.62637542,
    "death_rate": 0.010293806289795511,
    "location_name_en": "Grenada",
    "location_name_de": "Grenada",
    "bounds": {
      "northeast": {
        "lat": 12.5367,
        "lng": -61.3746999
      },
      "southwest": {
        "lat": 11.9829051,
        "lng": -61.80589999999999
      }
    },
    "center": {
      "lat": 12.1165,
      "lng": -61.67899999999999
    }
  },
  {
    "location_name": "Moldova",
    "sex_name": "Both",
    "age_name": "All Ages",
    "cause_name": "Drug use disorders",
    "year": 2017,
    "val": 59.2163913570398,
    "upper": 64.93833167329892,
    "lower": 54.416451234971305,
    "all_causes_val": 41804.335534257494,
    "population": 3721820.48970747,
    "death_rate": 0.011232227790100446,
    "location_name_en": "Moldova",
    "location_name_de": "Moldawien",
    "bounds": {
      "northeast": {
        "lat": 48.492029,
        "lng": 30.1635898
      },
      "southwest": {
        "lat": 45.4674379,
        "lng": 26.6164248
      }
    },
    "center": {
      "lat": 47.411631,
      "lng": 28.369885
    }
  },
  {
    "location_name": "Liberia",
    "sex_name": "Both",
    "age_name": "All Ages",
    "cause_name": "Drug use disorders",
    "year": 2017,
    "val": 43.71305508309301,
    "upper": 54.97238661825694,
    "lower": 33.84618623770926,
    "all_causes_val": 31198.812271839117,
    "population": 4722638.2156024,
    "death_rate": 0.006606225344292974,
    "location_name_en": "Liberia",
    "location_name_de": "Liberia",
    "bounds": {
      "northeast": {
        "lat": 8.551986,
        "lng": -7.3692549
      },
      "southwest": {
        "lat": 4.269699999999999,
        "lng": -11.5355999
      }
    },
    "center": {
      "lat": 6.428055,
      "lng": -9.429499000000002
    }
  },
  {
    "location_name": "Venezuela",
    "sex_name": "Both",
    "age_name": "All Ages",
    "cause_name": "Drug use disorders",
    "year": 2017,
    "val": 239.4109860183849,
    "upper": 283.2159981060257,
    "lower": 201.9153324653918,
    "all_causes_val": 172584.83700036426,
    "population": 30831741.0257774,
    "death_rate": 0.005597635140230057,
    "location_name_en": "Venezuela",
    "location_name_de": "Venezuela",
    "bounds": {
      "northeast": {
        "lat": 12.770409,
        "lng": -59.80378
      },
      "southwest": {
        "lat": 0.5438179,
        "lng": -73.4255611
      }
    },
    "center": {
      "lat": 6.42375,
      "lng": -66.58973
    }
  },
  {
    "location_name": "Saint Vincent and the Grenadines",
    "sex_name": "Both",
    "age_name": "All Ages",
    "cause_name": "Drug use disorders",
    "year": 2017,
    "val": 1.3874899743442013,
    "upper": 1.5863982743977236,
    "lower": 1.2291278644012573,
    "all_causes_val": 1005.1716443199821,
    "population": 114111.645773981,
    "death_rate": 0.008808668365987014,
    "location_name_en": "Saint Vincent and the Grenadines",
    "location_name_de": "Sankt Vincent und die Grenadinen",
    "bounds": {
      "northeast": {
        "lat": 13.4136657,
        "lng": -61.0846
      },
      "southwest": {
        "lat": 12.5294999,
        "lng": -61.4822
      }
    },
    "center": {
      "lat": 12.984305,
      "lng": -61.287228
    }
  },
  {
    "location_name": "Slovenia",
    "sex_name": "Both",
    "age_name": "All Ages",
    "cause_name": "Drug use disorders",
    "year": 2017,
    "val": 27.420658404383968,
    "upper": 30.72521216816958,
    "lower": 24.407978030510673,
    "all_causes_val": 19903.95618200428,
    "population": 2068856.27647109,
    "death_rate": 0.009620753460919505,
    "location_name_en": "Slovenia",
    "location_name_de": "Slowenien",
    "bounds": {
      "northeast": {
        "lat": 46.876659,
        "lng": 16.6107038
      },
      "southwest": {
        "lat": 45.4218356,
        "lng": 13.3753355
      }
    },
    "center": {
      "lat": 46.151241,
      "lng": 14.995463
    }
  },
  {
    "location_name": "Panama",
    "sex_name": "Both",
    "age_name": "All Ages",
    "cause_name": "Drug use disorders",
    "year": 2017,
    "val": 26.14455702228757,
    "upper": 28.723865629497656,
    "lower": 23.67412814100878,
    "all_causes_val": 18978.510380645643,
    "population": 3921083.47230215,
    "death_rate": 0.004840118940263968,
    "location_name_en": "Panama",
    "location_name_de": "Panama",
    "bounds": {
      "northeast": {
        "lat": 9.7145001,
        "lng": -77.1584879
      },
      "southwest": {
        "lat": 7.0409,
        "lng": -83.05224109999999
      }
    },
    "center": {
      "lat": 8.537981,
      "lng": -80.782127
    }
  },
  {
    "location_name": "Guam",
    "sex_name": "Both",
    "age_name": "All Ages",
    "cause_name": "Drug use disorders",
    "year": 2017,
    "val": 1.6984069256980592,
    "upper": 1.9292047854693404,
    "lower": 1.493877345693331,
    "all_causes_val": 1251.8744668105658,
    "population": 167836.747717223,
    "death_rate": 0.007458881823185503,
    "location_name_en": "Guam",
    "location_name_de": "Guam",
    "bounds": {
      "northeast": {
        "lat": 13.7994072,
        "lng": 145.112915
      },
      "southwest": {
        "lat": 13.1022175,
        "lng": 144.4647218
      }
    },
    "center": {
      "lat": 13.444304,
      "lng": 144.793731
    }
  },
  {
    "location_name": "Saint Lucia",
    "sex_name": "Both",
    "age_name": "All Ages",
    "cause_name": "Drug use disorders",
    "year": 2017,
    "val": 1.7743279883085392,
    "upper": 2.000629890445264,
    "lower": 1.563471881855658,
    "all_causes_val": 1329.6665750066068,
    "population": 176474.444847228,
    "death_rate": 0.007534612595935262,
    "location_name_en": "Saint Lucia",
    "location_name_de": "Sankt Lucia",
    "bounds": {
      "northeast": {
        "lat": 14.1209277,
        "lng": -60.85979460000001
      },
      "southwest": {
        "lat": 13.7047779,
        "lng": -61.0812378
      }
    },
    "center": {
      "lat": 13.909444,
      "lng": -60.978893
    }
  },
  {
    "location_name": "Romania",
    "sex_name": "Both",
    "age_name": "All Ages",
    "cause_name": "Drug use disorders",
    "year": 2017,
    "val": 348.26277096853266,
    "upper": 376.9345684469545,
    "lower": 320.959998055073,
    "all_causes_val": 261100.99727086595,
    "population": 19433765.9551918,
    "death_rate": 0.013435429750100078,
    "location_name_en": "Romania",
    "location_name_de": "Rumänien",
    "bounds": {
      "northeast": {
        "lat": 48.26518,
        "lng": 29.77839999999999
      },
      "southwest": {
        "lat": 43.6186193,
        "lng": 20.2617591
      }
    },
    "center": {
      "lat": 45.943161,
      "lng": 24.96676
    }
  },
  {
    "location_name": "Nigeria",
    "sex_name": "Both",
    "age_name": "All Ages",
    "cause_name": "Drug use disorders",
    "year": 2017,
    "val": 2071.509387968236,
    "upper": 3050.510541630983,
    "lower": 1395.8385504083856,
    "all_causes_val": 1582430.4905233833,
    "population": 206087946.779778,
    "death_rate": 0.007678423290879505,
    "location_name_en": "Nigeria",
    "location_name_de": "Nigeria",
    "bounds": {
      "northeast": {
        "lat": 13.8856449,
        "lng": 14.677982
      },
      "southwest": {
        "lat": 4.1821001,
        "lng": 2.676932
      }
    },
    "center": {
      "lat": 9.081999,
      "lng": 8.675277
    }
  },
  {
    "location_name": "Portugal",
    "sex_name": "Both",
    "age_name": "All Ages",
    "cause_name": "Drug use disorders",
    "year": 2017,
    "val": 148.7666817020984,
    "upper": 161.960239245085,
    "lower": 135.1895516652368,
    "all_causes_val": 113754.21744223878,
    "population": 10681711.5382614,
    "death_rate": 0.010649437314870036,
    "location_name_en": "Portugal",
    "location_name_de": "Portugal",
    "bounds": {
      "northeast": {
        "lat": 42.1543111,
        "lng": -6.189159200000001
      },
      "southwest": {
        "lat": 32.2895,
        "lng": -31.4647999
      }
    },
    "center": {
      "lat": 39.39987199999999,
      "lng": -8.224454
    }
  },
  {
    "location_name": "Turkey",
    "sex_name": "Both",
    "age_name": "All Ages",
    "cause_name": "Drug use disorders",
    "year": 2017,
    "val": 524.6834379222873,
    "upper": 587.2658478954476,
    "lower": 466.24793509983766,
    "all_causes_val": 402293.61543732067,
    "population": 80456850.9025266,
    "death_rate": 0.005000116347142383,
    "location_name_en": "Turkey",
    "location_name_de": "Türkei",
    "bounds": {
      "northeast": {
        "lat": 42.3666999,
        "lng": 44.8178449
      },
      "southwest": {
        "lat": 35.808592,
        "lng": 25.5377
      }
    },
    "center": {
      "lat": 38.963745,
      "lng": 35.243322
    }
  },
  {
    "location_name": "American Samoa",
    "sex_name": "Both",
    "age_name": "All Ages",
    "cause_name": "Drug use disorders",
    "year": 2017,
    "val": 0.42650303240175624,
    "upper": 0.47777031420683136,
    "lower": 0.3776392017793669,
    "all_causes_val": 327.94781608249633,
    "population": 55630.7723374409,
    "death_rate": 0.005895079329354902,
    "location_name_en": "American Samoa",
    "location_name_de": "Amerikanisch-Samoa",
    "bounds": {
      "northeast": {
        "lat": -13.4056506,
        "lng": -169.2059326
      },
      "southwest": {
        "lat": -14.7217608,
        "lng": -171.0076904
      }
    },
    "center": {
      "lat": -14.270972,
      "lng": -170.132217
    }
  },
  {
    "location_name": "Nicaragua",
    "sex_name": "Both",
    "age_name": "All Ages",
    "cause_name": "Drug use disorders",
    "year": 2017,
    "val": 29.734300411064098,
    "upper": 34.64512129648254,
    "lower": 25.51408315358963,
    "all_causes_val": 23173.67946185679,
    "population": 6396569.90462011,
    "death_rate": 0.0036228290798665267,
    "location_name_en": "Nicaragua",
    "location_name_de": "Nicaragua",
    "bounds": {
      "northeast": {
        "lat": 15.0297369,
        "lng": -82.2766
      },
      "southwest": {
        "lat": 10.7080549,
        "lng": -87.7588
      }
    },
    "center": {
      "lat": 12.865416,
      "lng": -85.207229
    }
  },
  {
    "location_name": "Czech Republic",
    "sex_name": "Both",
    "age_name": "All Ages",
    "cause_name": "Drug use disorders",
    "year": 2017,
    "val": 140.0930770058891,
    "upper": 154.0574026425485,
    "lower": 128.2691462273116,
    "all_causes_val": 110500.69380344561,
    "population": 10592731.528577,
    "death_rate": 0.010431746854466913,
    "location_name_en": "Czechia",
    "location_name_de": "Tschechien",
    "bounds": {
      "northeast": {
        "lat": 51.0557185,
        "lng": 18.8592361
      },
      "southwest": {
        "lat": 48.5518081,
        "lng": 12.090589
      }
    },
    "center": {
      "lat": 49.81749199999999,
      "lng": 15.472962
    }
  },
  {
    "location_name": "Benin",
    "sex_name": "Both",
    "age_name": "All Ages",
    "cause_name": "Drug use disorders",
    "year": 2017,
    "val": 97.86705951629362,
    "upper": 123.72346807263243,
    "lower": 76.03546793006919,
    "all_causes_val": 80805.06914519507,
    "population": 11585300.8275959,
    "death_rate": 0.006974792484690548,
    "location_name_en": "Benin",
    "location_name_de": "Benin",
    "bounds": {
      "northeast": {
        "lat": 12.4086111,
        "lng": 3.8433429
      },
      "southwest": {
        "lat": 6.2061001,
        "lng": 0.7754124000000001
      }
    },
    "center": {
      "lat": 9.30769,
      "lng": 2.315834
    }
  },
  {
    "location_name": "Uruguay",
    "sex_name": "Both",
    "age_name": "All Ages",
    "cause_name": "Drug use disorders",
    "year": 2017,
    "val": 39.404270588261085,
    "upper": 44.041979575288906,
    "lower": 34.99412148191257,
    "all_causes_val": 33513.55311245432,
    "population": 3421531.50545919,
    "death_rate": 0.00979489829597714,
    "location_name_en": "Uruguay",
    "location_name_de": "Uruguay",
    "bounds": {
      "northeast": {
        "lat": -30.0852149,
        "lng": -53.0779284
      },
      "southwest": {
        "lat": -35.1558001,
        "lng": -58.4913609
      }
    },
    "center": {
      "lat": -32.522779,
      "lng": -55.765835
    }
  },
  {
    "location_name": "Belize",
    "sex_name": "Both",
    "age_name": "All Ages",
    "cause_name": "Drug use disorders",
    "year": 2017,
    "val": 2.1676605297485385,
    "upper": 2.4539885987237837,
    "lower": 1.9370456243948506,
    "all_causes_val": 1874.538934725829,
    "population": 394958.436171146,
    "death_rate": 0.004746167604110984,
    "location_name_en": "Belize",
    "location_name_de": "Belize",
    "bounds": {
      "northeast": {
        "lat": 18.4959419,
        "lng": -87.41269989999999
      },
      "southwest": {
        "lat": 15.8856189,
        "lng": -89.22758789999999
      }
    },
    "center": {
      "lat": 17.189877,
      "lng": -88.49765
    }
  },
  {
    "location_name": "Chile",
    "sex_name": "Both",
    "age_name": "All Ages",
    "cause_name": "Drug use disorders",
    "year": 2017,
    "val": 129.42997630356382,
    "upper": 146.00515638284588,
    "lower": 114.5019989668715,
    "all_causes_val": 112316.15231399277,
    "population": 17918234.9028369,
    "death_rate": 0.006268259843842674,
    "location_name_en": "Chile",
    "location_name_de": "Chile",
    "bounds": {
      "northeast": {
        "lat": -17.4983291,
        "lng": -66.3327
      },
      "southwest": {
        "lat": -56.1455,
        "lng": -110.0281
      }
    },
    "center": {
      "lat": -35.675147,
      "lng": -71.542969
    }
  },
  {
    "location_name": "Seychelles",
    "sex_name": "Both",
    "age_name": "All Ages",
    "cause_name": "Drug use disorders",
    "year": 2017,
    "val": 0.8643909120387314,
    "upper": 0.9666286793396559,
    "lower": 0.7532421792877232,
    "all_causes_val": 762.5560794977919,
    "population": 100907.1462288,
    "death_rate": 0.007557007684755533,
    "location_name_en": "Seychelles",
    "location_name_de": "Seychellen",
    "bounds": {
      "northeast": {
        "lat": -3.7091721,
        "lng": 56.3928224
      },
      "southwest": {
        "lat": -10.4716073,
        "lng": 45.9832764
      }
    },
    "center": {
      "lat": -4.679574,
      "lng": 55.491977
    }
  },
  {
    "location_name": "India",
    "sex_name": "Both",
    "age_name": "All Ages",
    "cause_name": "Drug use disorders",
    "year": 2017,
    "val": 11154.8088918334,
    "upper": 11727.761226285593,
    "lower": 10481.74599862128,
    "all_causes_val": 9909501.469219549,
    "population": 1380560358.77939,
    "death_rate": 0.007177883535625306,
    "location_name_en": "India",
    "location_name_de": "Indien",
    "bounds": {
      "northeast": {
        "lat": 35.513327,
        "lng": 97.39535869999999
      },
      "southwest": {
        "lat": 6.4626999,
        "lng": 68.1097
      }
    },
    "center": {
      "lat": 20.593684,
      "lng": 78.96288
    }
  },
  {
    "location_name": "Federated States of Micronesia",
    "sex_name": "Both",
    "age_name": "All Ages",
    "cause_name": "Drug use disorders",
    "year": 2017,
    "val": 0.8404866820463928,
    "upper": 1.1172935022036934,
    "lower": 0.5546096720755084,
    "all_causes_val": 747.3489716065475,
    "population": 103926.311991094,
    "death_rate": 0.007191143005927044,
    "location_name_en": "Federated States of Micronesia",
    "location_name_de": "Föderierte Staaten von Mikronesien",
    "bounds": {
      "northeast": {
        "lat": 10.2770863,
        "lng": 163.5177612
      },
      "southwest": {
        "lat": 0.1538084,
        "lng": 136.9226075
      }
    },
    "center": {
      "lat": 7.425554,
      "lng": 150.550812
    }
  },
  {
    "location_name": "Italy",
    "sex_name": "Both",
    "age_name": "All Ages",
    "cause_name": "Drug use disorders",
    "year": 2017,
    "val": 689.718524416933,
    "upper": 760.5035469286946,
    "lower": 627.0687675908932,
    "all_causes_val": 622129.8343606984,
    "population": 60597479.9784122,
    "death_rate": 0.010266595815243992,
    "location_name_en": "Italy",
    "location_name_de": "Italien",
    "bounds": {
      "northeast": {
        "lat": 47.092,
        "lng": 18.7975999
      },
      "southwest": {
        "lat": 35.4897,
        "lng": 6.6267201
      }
    },
    "center": {
      "lat": 41.87194,
      "lng": 12.56738
    }
  },
  {
    "location_name": "Eritrea",
    "sex_name": "Both",
    "age_name": "All Ages",
    "cause_name": "Drug use disorders",
    "year": 2017,
    "val": 45.37341809096056,
    "upper": 62.69646224153907,
    "lower": 32.55157960736971,
    "all_causes_val": 41762.54259775644,
    "population": 5859328.99322904,
    "death_rate": 0.007127529900781584,
    "location_name_en": "Eritrea",
    "location_name_de": "Eritrea",
    "bounds": {
      "northeast": {
        "lat": 18.0204137,
        "lng": 43.2312
      },
      "southwest": {
        "lat": 12.354723,
        "lng": 36.433348
      }
    },
    "center": {
      "lat": 15.179384,
      "lng": 39.782334
    }
  },
  {
    "location_name": "Mozambique",
    "sex_name": "Both",
    "age_name": "All Ages",
    "cause_name": "Drug use disorders",
    "year": 2017,
    "val": 277.2848443279317,
    "upper": 354.68229795403875,
    "lower": 207.61730787979567,
    "all_causes_val": 256849.81779911567,
    "population": 30035304.064718,
    "death_rate": 0.008551597055440938,
    "location_name_en": "Mozambique",
    "location_name_de": "Mosambik",
    "bounds": {
      "northeast": {
        "lat": -10.3128929,
        "lng": 41.3965
      },
      "southwest": {
        "lat": -26.9612,
        "lng": 30.2155501
      }
    },
    "center": {
      "lat": -18.665695,
      "lng": 35.529562
    }
  },
  {
    "location_name": "Northern Mariana Islands",
    "sex_name": "Both",
    "age_name": "All Ages",
    "cause_name": "Drug use disorders",
    "year": 2017,
    "val": 0.28374334075373936,
    "upper": 0.32575024403576963,
    "lower": 0.24598555485135556,
    "all_causes_val": 265.4824325601155,
    "population": 44878.1533004231,
    "death_rate": 0.005915627382947876,
    "location_name_en": "Northern Mariana Islands",
    "location_name_de": "Nördliche Marianen",
    "bounds": {
      "northeast": {
        "lat": 20.6584862,
        "lng": 146.2060546
      },
      "southwest": {
        "lat": 13.9713848,
        "lng": 144.7668457
      }
    },
    "center": {
      "lat": 15.0979,
      "lng": 145.6739
    }
  },
  {
    "location_name": "Albania",
    "sex_name": "Both",
    "age_name": "All Ages",
    "cause_name": "Drug use disorders",
    "year": 2017,
    "val": 22.988952956570902,
    "upper": 28.820444309962216,
    "lower": 18.721241917871605,
    "all_causes_val": 21756.81898234015,
    "population": 2766161.55214759,
    "death_rate": 0.007865346463748153,
    "location_name_en": "Albania",
    "location_name_de": "Albanien",
    "bounds": {
      "northeast": {
        "lat": 42.6611669,
        "lng": 21.0572394
      },
      "southwest": {
        "lat": 39.6447296,
        "lng": 19.1217
      }
    },
    "center": {
      "lat": 41.153332,
      "lng": 20.168331
    }
  },
  {
    "location_name": "Djibouti",
    "sex_name": "Both",
    "age_name": "All Ages",
    "cause_name": "Drug use disorders",
    "year": 2017,
    "val": 6.573056526147079,
    "upper": 9.302334184671674,
    "lower": 4.441946906706787,
    "all_causes_val": 6226.851598176014,
    "population": 1113100.4648529,
    "death_rate": 0.0055941505684295205,
    "location_name_en": "Djibouti",
    "location_name_de": "Dschibuti",
    "bounds": {
      "northeast": {
        "lat": 12.7136972,
        "lng": 43.4839
      },
      "southwest": {
        "lat": 10.912953,
        "lng": 41.77084600000001
      }
    },
    "center": {
      "lat": 11.825138,
      "lng": 42.590275
    }
  },
  {
    "location_name": "Bhutan",
    "sex_name": "Both",
    "age_name": "All Ages",
    "cause_name": "Drug use disorders",
    "year": 2017,
    "val": 4.354534916127213,
    "upper": 5.394591316765758,
    "lower": 3.2488411999576865,
    "all_causes_val": 4139.807722084132,
    "population": 957410.249150419,
    "death_rate": 0.004323964283605372,
    "location_name_en": "Bhutan",
    "location_name_de": "Bhutan",
    "bounds": {
      "northeast": {
        "lat": 28.246987,
        "lng": 92.125232
      },
      "southwest": {
        "lat": 26.702016,
        "lng": 88.7464739
      }
    },
    "center": {
      "lat": 27.514162,
      "lng": 90.433601
    }
  },
  {
    "location_name": "Guinea",
    "sex_name": "Both",
    "age_name": "All Ages",
    "cause_name": "Drug use disorders",
    "year": 2017,
    "val": 112.89081697219504,
    "upper": 134.19923636816708,
    "lower": 93.05045717686278,
    "all_causes_val": 108465.6337996916,
    "population": 11819986.8900984,
    "death_rate": 0.009176459737916734,
    "location_name_en": "Guinea",
    "location_name_de": "Guinea",
    "bounds": {
      "northeast": {
        "lat": 12.6748616,
        "lng": -7.637853
      },
      "southwest": {
        "lat": 7.190909099999999,
        "lng": -15.282
      }
    },
    "center": {
      "lat": 9.945587,
      "lng": -9.696645
    }
  },
  {
    "location_name": "Sierra Leone",
    "sex_name": "Both",
    "age_name": "All Ages",
    "cause_name": "Drug use disorders",
    "year": 2017,
    "val": 73.46793482608754,
    "upper": 90.57817039418643,
    "lower": 59.45463418676228,
    "all_causes_val": 71226.98389512354,
    "population": 7829748.92192017,
    "death_rate": 0.009096969086162704,
    "location_name_en": "Sierra Leone",
    "location_name_de": "Sierra Leone",
    "bounds": {
      "northeast": {
        "lat": 9.9999737,
        "lng": -10.2716829
      },
      "southwest": {
        "lat": 6.8446,
        "lng": -13.4032999
      }
    },
    "center": {
      "lat": 8.460555,
      "lng": -11.779889
    }
  },
  {
    "location_name": "Colombia",
    "sex_name": "Both",
    "age_name": "All Ages",
    "cause_name": "Drug use disorders",
    "year": 2017,
    "val": 237.15957941181358,
    "upper": 269.3921767724344,
    "lower": 207.84861734780105,
    "all_causes_val": 234216.5810971164,
    "population": 50606157.0714899,
    "death_rate": 0.004628223019705788,
    "location_name_en": "Colombia",
    "location_name_de": "Kolumbien",
    "bounds": {
      "northeast": {
        "lat": 13.5177999,
        "lng": -66.8463122
      },
      "southwest": {
        "lat": -4.227109899999999,
        "lng": -81.8317
      }
    },