[{"location_name":"Madagascar","sex_name":"Both","age_name":"All Ages","cause_name":"Nutritional deficiencies","year":2017,"val":11668.53156167585,"upper":18943.960954431,"lower":7429.288893992916,"all_causes_val":184888.57575799344,"population":26108784.5617991,"death_rate":0.007081470043937318,"location_name_en":"Madagascar","location_name_de":"Madagaskar","bounds":{"northeast":{"lat":-11.4369999,"lng":50.9985001},"southwest":{"lat":-26.2146,"lng":42.7368}},"center":{"lat":-18.766947,"lng":46.869107}},{"location_name":"Mali","sex_name":"Both","age_name":"All Ages","cause_name":"Nutritional deficiencies","year":2017,"val":6685.805849830334,"upper":10128.647672050703,"lower":4076.2853406533995,"all_causes_val":186241.76543868342,"population":20253726.98489,"death_rate":0.009195431812506726,"location_name_en":"Mali","location_name_de":"Mali","bounds":{"northeast":{"lat":25.001084,"lng":4.267382599999999},"southwest":{"lat":10.147811,"lng":-12.2403447}},"center":{"lat":17.570692,"lng":-3.996166}},{"location_name":"Burundi","sex_name":"Both","age_name":"All Ages","cause_name":"Nutritional deficiencies","year":2017,"val":2603.027516919934,"upper":3566.7301584637717,"lower":1881.3542177729478,"all_causes_val":81916.8344968599,"population":10905413.3710702,"death_rate":0.007511575371747784,"location_name_en":"Burundi","location_name_de":"Burundi","bounds":{"northeast":{"lat":-2.3097301,"lng":30.84954},"southwest":{"lat":-4.4693288,"lng":29.000968}},"center":{"lat":-3.373056,"lng":29.918886}},{"location_name":"Chad","sex_name":"Both","age_name":"All Ages","cause_name":"Nutritional deficiencies","year":2017,"val":4335.826351266678,"upper":5765.912972221268,"lower":3175.384485260941,"all_causes_val":146652.59264164238,"population":15222085.5656838,"death_rate":0.009634198415771058,"location_name_en":"Chad","location_name_de":"Tschad","bounds":{"northeast":{"lat":23.449228,"lng":24.0000011},"southwest":{"lat":7.442975,"lng":13.4699999}},"center":{"lat":15.454166,"lng":18.732207}},{"location_name":"South Sudan","sex_name":"Both","age_name":"All Ages","cause_name":"Nutritional deficiencies","year":2017,"val":2854.3060429030393,"upper":4073.966646101936,"lower":1994.2416758103893,"all_causes_val":97278.59870846903,"population":9941009.55560453,"death_rate":0.009785585474427537,"location_name_en":"South Sudan","location_name_de":"Südsudan","bounds":{"northeast":{"lat":12.236389,"lng":35.9489971},"southwest":{"lat":3.48898,"lng":23.4408491}},"center":{"lat":6.876991899999999,"lng":31.3069788}},{"location_name":"Eritrea","sex_name":"Both","age_name":"All Ages","cause_name":"Nutritional deficiencies","year":2017,"val":1147.0907696544427,"upper":1576.2620884073542,"lower":795.5129758665596,"all_causes_val":41762.54259775644,"population":5859328.99322904,"death_rate":0.007127529900781584,"location_name_en":"Eritrea","location_name_de":"Eritrea","bounds":{"northeast":{"lat":18.0204137,"lng":43.2312},"southwest":{"lat":12.354723,"lng":36.433348}},"center":{"lat":15.179384,"lng":39.782334}},{"location_name":"Zimbabwe","sex_name":"Both","age_name":"All Ages","cause_name":"Nutritional deficiencies","year":2017,"val":3157.591803928646,"upper":3835.3414764740232,"lower":2570.6065192415863,"all_causes_val":117627.53254576428,"population":14713754.3424919,"death_rate":0.007994392852276141,"location_name_en":"Zimbabwe","location_name_de":"Simbabwe","bounds":{"northeast":{"lat":-15.6093188,"lng":33.068236},"southwest":{"lat":-22.4219117,"lng":25.237368}},"center":{"lat":-19.015438,"lng":29.154857}},{"location_name":"Angola","sex_name":"Both","age_name":"All Ages","cause_name":"Nutritional deficiencies","year":2017,"val":4515.79689627626,"upper":5957.840129469329,"lower":3422.929520969036,"all_causes_val":184355.5217205569,"population":28202298.6469432,"death_rate":0.006536897010717206,"location_name_en":"Angola","location_name_de":"Angola","bounds":{"northeast":{"lat":-4.388063300000001,"lng":24.0878855},"southwest":{"lat":-18.0391039,"lng":11.4696999}},"center":{"lat":-11.202692,"lng":17.873887}},{"location_name":"Ethiopia","sex_name":"Both","age_name":"All Ages","cause_name":"Nutritional deficiencies","year":2017,"val":12681.275772011659,"upper":15241.991780051572,"lower":10469.10582667002,"all_causes_val":536989.9966367738,"population":102883938.284794,"death_rate":0.00521937637292156,"location_name_en":"Ethiopia","location_name_de":"Äthiopien","bounds":{"northeast":{"lat":14.8942141,"lng":48.0010561},"southwest":{"lat":3.4041369,"lng":32.997734}},"center":{"lat":9.145000000000001,"lng":40.489673}},{"location_name":"Somalia","sex_name":"Both","age_name":"All Ages","cause_name":"Nutritional deficiencies","year":2017,"val":3434.626270599891,"upper":5444.267919239198,"lower":2095.1116747717247,"all_causes_val":145655.6972516684,"population":16880386.4245221,"death_rate":0.008628694485339193,"location_name_en":"Somalia","location_name_de":"Somalia","bounds":{"northeast":{"lat":12.3615,"lng":51.6138},"southwest":{"lat":-1.8673,"lng":40.994373}},"center":{"lat":5.152149,"lng":46.199616}},{"location_name":"Burkina Faso","sex_name":"Both","age_name":"All Ages","cause_name":"Nutritional deficiencies","year":2017,"val":4219.15566350376,"upper":5807.206109700081,"lower":2980.666502232484,"all_causes_val":182842.16533984357,"population":21121966.138689,"death_rate":0.008656493630341187,"location_name_en":"Burkina Faso","location_name_de":"Burkina Faso","bounds":{"northeast":{"lat":15.0840397,"lng":2.4043596},"southwest":{"lat":9.4104717,"lng":-5.5132416}},"center":{"lat":12.238333,"lng":-1.561593}},{"location_name":"Guatemala","sex_name":"Both","age_name":"All Ages","cause_name":"Nutritional deficiencies","year":2017,"val":2046.9338661887991,"upper":2279.848040749112,"lower":1852.378352001548,"all_causes_val":89106.43918368036,"population":16924208.0440367,"death_rate":0.005265028588151709,"location_name_en":"Guatemala","location_name_de":"Guatemala","bounds":{"northeast":{"lat":17.815697,"lng":-88.1982001},"southwest":{"lat":13.63,"lng":-92.2714}},"center":{"lat":15.783471,"lng":-90.23075899999999}},{"location_name":"Rwanda","sex_name":"Both","age_name":"All Ages","cause_name":"Nutritional deficiencies","year":2017,"val":1536.1862804219259,"upper":2072.3433780468627,"lower":1121.0994149523149,"all_causes_val":68229.7044612179,"population":12554172.4394686,"death_rate":0.005434822947525641,"location_name_en":"Rwanda","location_name_de":"Ruanda","bounds":{"northeast":{"lat":-1.0473752,"lng":30.8991179},"southwest":{"lat":-2.8399383,"lng":28.861754}},"center":{"lat":-1.940278,"lng":29.873888}},{"location_name":"Zambia","sex_name":"Both","age_name":"All Ages","cause_name":"Nutritional deficiencies","year":2017,"val":2637.1162087315306,"upper":3443.711481196692,"lower":1986.5410974008673,"all_causes_val":118470.65888474435,"population":17364087.958707,"death_rate":0.006822740080934613,"location_name_en":"Zambia","location_name_de":"Sambia","bounds":{"northeast":{"lat":-8.2032838,"lng":33.7090305},"southwest":{"lat":-18.0774179,"lng":21.999351}},"center":{"lat":-13.133897,"lng":27.849332}},{"location_name":"Guinea","sex_name":"Both","age_name":"All Ages","cause_name":"Nutritional deficiencies","year":2017,"val":2413.454011639904,"upper":3239.8515846312243,"lower":1803.9701892031312,"all_causes_val":108465.6337996916,"population":11819986.8900984,"death_rate":0.009176459737916734,"location_name_en":"Guinea","location_name_de":"Guinea","bounds":{"northeast":{"lat":12.6748616,"lng":-7.637853},"southwest":{"lat":7.190909099999999,"lng":-15.282}},"center":{"lat":9.945587,"lng":-9.696645}},{"location_name":"Sierra Leone","sex_name":"Both","age_name":"All Ages","cause_name":"Nutritional deficiencies","year":2017,"val":1578.6500180612798,"upper":2169.5712629676605,"lower":1104.405356320765,"all_causes_val":71226.98389512354,"population":7829748.92192017,"death_rate":0.009096969086162704,"location_name_en":"Sierra Leone","location_name_de":"Sierra Leone","bounds":{"northeast":{"lat":9.9999737,"lng":-10.2716829},"southwest":{"lat":6.8446,"lng":-13.4032999}},"center":{"lat":8.460555,"lng":-11.779889}},{"location_name":"Central African Republic","sex_name":"Both","age_name":"All Ages","cause_name":"Nutritional deficiencies","year":2017,"val":1382.0563145038143,"upper":1887.5937829884692,"lower":990.5757171110124,"all_causes_val":63852.412998496126,"population":4622514.9638324,"death_rate":0.013813349117978376,"location_name_en":"Central African Republic","location_name_de":"Zentralafrikanische Republik","bounds":{"northeast":{"lat":11.0179569,"lng":27.4583049},"southwest":{"lat":2.2230529,"lng":14.4150981}},"center":{"lat":6.611110999999999,"lng":20.939444}},{"location_name":"Democratic Republic of the Congo","sex_name":"Both","age_name":"All Ages","cause_name":"Nutritional deficiencies","year":2017,"val":13059.484826611255,"upper":17125.94258531358,"lower":9943.95235012887,"all_causes_val":642873.0952611481,"population":80884670.6650421,"death_rate":0.007948021423285516,"location_name_en":"Democratic Republic of the Congo","location_name_de":"Demokratische Republik Kongo","bounds":{"northeast":{"lat":5.3920029,"lng":31.314612},"southwest":{"lat":-13.4590349,"lng":12.1454}},"center":{"lat":-4.038333,"lng":21.758664}},{"location_name":"Tanzania","sex_name":"Both","age_name":"All Ages","cause_name":"Nutritional deficiencies","year":2017,"val":6721.46528473199,"upper":8878.268118843645,"lower":5083.142791277149,"all_causes_val":342550.72031168453,"population":53973135.8346593,"death_rate":0.006346689237420827,"location_name_en":"Tanzania","location_name_de":"Tansania","bounds":{"northeast":{"lat":-0.9843968000000001,"lng":40.6398},"southwest":{"lat":-11.7612539,"lng":29.34}},"center":{"lat":-6.369028,"lng":34.888822}},{"location_name":"Benin","sex_name":"Both","age_name":"All Ages","cause_name":"Nutritional deficiencies","year":2017,"val":1375.010804138186,"upper":1980.1063573364463,"lower":910.8754530799679,"all_causes_val":80805.06914519507,"population":11585300.8275959,"death_rate":0.006974792484690548,"location_name_en":"Benin","location_name_de":"Benin","bounds":{"northeast":{"lat":12.4086111,"lng":3.8433429},"southwest":{"lat":6.2061001,"lng":0.7754124000000001}},"center":{"lat":9.30769,"lng":2.315834}},{"location_name":"Kiribati","sex_name":"Both","age_name":"All Ages","cause_name":"Nutritional deficiencies","year":2017,"val":16.758920967316147,"upper":20.730168517748517,"lower":13.019146942530524,"all_causes_val":1009.1966198917165,"population":118240.556505636,"death_rate":0.008535113921284806,"location_name_en":"Kiribati","location_name_de":"Kiribati","bounds":{"northeast":{"lat":5.4082108,"lng":-145.1513674},"southwest":{"lat":-13.0502263,"lng":168.8818359}},"center":{"lat":-3.370417,"lng":-168.734039}},{"location_name":"The Gambia","sex_name":"Both","age_name":"All Ages","cause_name":"Nutritional deficiencies","year":2017,"val":223.63253408171806,"upper":304.5212202697666,"lower":162.44419023256216,"all_causes_val":13652.372808136182,"population":2132509.54239919,"death_rate":0.006402021907379845,"location_name_en":"The Gambia","location_name_de":"Gambia","bounds":{"northeast":{"lat":13.825058,"lng":-13.7913862},"southwest":{"lat":13.0098999,"lng":-16.9464001}},"center":{"lat":13.443182,"lng":-15.310139}},{"location_name":"Nigeria","sex_name":"Both","age_name":"All Ages","cause_name":"Nutritional deficiencies","year":2017,"val":25758.848528113416,"upper":34125.78528024071,"lower":19237.217819559326,"all_causes_val":1582430.4905233833,"population":206087946.779778,"death_rate":0.007678423290879505,"location_name_en":"Nigeria","location_name_de":"Nigeria","bounds":{"northeast":{"lat":13.8856449,"lng":14.677982},"southwest":{"lat":4.1821001,"lng":2.676932}},"center":{"lat":9.081999,"lng":8.675277}},{"location_name":"Malawi","sex_name":"Both","age_name":"All Ages","cause_name":"Nutritional deficiencies","year":2017,"val":2100.162097181751,"upper":2653.1420336465994,"lower":1654.424429098591,"all_causes_val":129414.74174399888,"population":17191216.5620286,"death_rate":0.007527957156321673,"location_name_en":"Malawi","location_name_de":"Malawi","bounds":{"northeast":{"lat":-9.3672272,"lng":35.91857299999999},"southwest":{"lat":-17.1295216,"lng":32.6725205}},"center":{"lat":-13.254308,"lng":34.301525}},{"location_name":"Kenya","sex_name":"Both","age_name":"All Ages","cause_name":"Nutritional deficiencies","year":2017,"val":4490.646890210674,"upper":4973.4683512123775,"lower":3985.932425756584,"all_causes_val":288899.3113731914,"population":48326776.2899052,"death_rate":0.005978038130251584,"location_name_en":"Kenya","location_name_de":"Kenia","bounds":{"northeast":{"lat":5.033420899999999,"lng":41.9069449},"southwest":{"lat":-4.724299999999999,"lng":33.90982109999999}},"center":{"lat":-0.023559,"lng":37.906193}},{"location_name":"Uganda","sex_name":"Both","age_name":"All Ages","cause_name":"Nutritional deficiencies","year":2017,"val":3519.304680830364,"upper":4551.725097664593,"lower":2708.292901966254,"all_causes_val":232630.54427390033,"population":39078381.5066312,"death_rate":0.005952921674466618,"location_name_en":"Uganda","location_name_de":"Uganda","bounds":{"northeast":{"lat":4.218628,"lng":35.0330489},"southwest":{"lat":-1.4823178,"lng":29.573433}},"center":{"lat":1.373333,"lng":32.290275}},{"location_name":"Djibouti","sex_name":"Both","age_name":"All Ages","cause_name":"Nutritional deficiencies","year":2017,"val":94.069523200875,"upper":148.38600346865272,"lower":59.154511285094884,"all_causes_val":6226.851598176014,"population":1113100.4648529,"death_rate":0.0055941505684295205,"location_name_en":"Djibouti","location_name_de":"Dschibuti","bounds":{"northeast":{"lat":12.7136972,"lng":43.4839},"southwest":{"lat":10.912953,"lng":41.77084600000001}},"center":{"lat":11.825138,"lng":42.590275}},{"location_name":"Liberia","sex_name":"Both","age_name":"All Ages","cause_name":"Nutritional deficiencies","year":2017,"val":465.4510771913827,"upper":668.1461501134734,"lower":328.3767943003809,"all_causes_val":31198.812271839117,"population":4722638.2156024,"death_rate":0.006606225344292974,"location_name_en":"Liberia","location_name_de":"Liberia","bounds":{"northeast":{"lat":8.551986,"lng":-7.3692549},"southwest":{"lat":4.269699999999999,"lng":-11.5355999}},"center":{"lat":6.428055,"lng":-9.429499000000002}},{"location_name":"Cote d'Ivoire","sex_name":"Both","age_name":"All Ages","cause_name":"Nutritional deficiencies","year":2017,"val":2579.763029868726,"upper":3585.2981002409283,"lower":1793.3741121897813,"all_causes_val":185069.07267057963,"population":24965279.186628,"death_rate":0.007413058403516955,"location_name_en":"Côte d'Ivoire","location_name_de":"Elfenbeinküste","bounds":{"northeast":{"lat":10.7400149,"lng":-2.493031},"southwest":{"lat":4.193,"lng":-8.6020589}},"center":{"lat":7.539988999999999,"lng":-5.547079999999999}},{"location_name":"Niger","sex_name":"Both","age_name":"All Ages","cause_name":"Nutritional deficiencies","year":2017,"val":2330.0413222588654,"upper":3359.529508462501,"lower":1557.2672500779472,"all_causes_val":172900.81217683255,"population":21375945.8305013,"death_rate":0.008088568971302345,"location_name_en":"Niger","location_name_de":"Niger","bounds":{"northeast":{"lat":23.4999997,"lng":15.9990339},"southwest":{"lat":11.693756,"lng":0.1617177}},"center":{"lat":17.607789,"lng":8.081666}},{"location_name":"Guinea-Bissau","sex_name":"Both","age_name":"All Ages","cause_name":"Nutritional deficiencies","year":2017,"val":208.91404661820718,"upper":287.0436568711382,"lower":140.165107778763,"all_causes_val":15504.474535477158,"population":1855540.47728839,"death_rate":0.008355772738590297,"location_name_en":"Guinea-Bissau","location_name_de":"Guinea-Bissau","bounds":{"northeast":{"lat":12.6869468,"lng":-13.6265235},"southwest":{"lat":10.7146,"lng":-16.9518999}},"center":{"lat":11.803749,"lng":-15.180413}},{"location_name":"Comoros","sex_name":"Both","age_name":"All Ages","cause_name":"Nutritional deficiencies","year":2017,"val":53.29238842971897,"upper":68.12006804635995,"lower":42.23505191122741,"all_causes_val":4418.41245733045,"population":718321.726924899,"death_rate":0.006151021598978305,"location_name_en":"Comoros","location_name_de":"Komoren","bounds":{"northeast":{"lat":-11.3373321,"lng":44.5646666},"southwest":{"lat":-12.4687602,"lng":43.1968689}},"center":{"lat":-11.6455,"lng":43.3333}},{"location_name":"Ghana","sex_name":"Both","age_name":"All Ages","cause_name":"Nutritional deficiencies","year":2017,"val":2410.304920688209,"upper":3127.7786423652738,"lower":1876.5844912552914,"all_causes_val":201638.6518283843,"population":30205291.7137156,"death_rate":0.006675606835368662,"location_name_en":"Ghana","location_name_de":"Ghana","bounds":{"northeast":{"lat":11.1750308,"lng":1.199972},"southwest":{"lat":4.6339001,"lng":-3.2607859}},"center":{"lat":7.946527,"lng":-1.023194}},{"location_name":"Mauritania","sex_name":"Both","age_name":"All Ages","cause_name":"Nutritional deficiencies","year":2017,"val":219.9639553611551,"upper":294.8376256430144,"lower":159.74775539330773,"all_causes_val":20049.9670862653,"population":3913921.55193768,"death_rate":0.005122730954160051,"location_name_en":"Mauritania","location_name_de":"Mauretanien","bounds":{"northeast":{"lat":27.3158916,"lng":-4.833334799999999},"southwest":{"lat":14.721273,"lng":-17.0687276}},"center":{"lat":21.00789,"lng":-10.940835}},{"location_name":"Sao Tome and Principe","sex_name":"Both","age_name":"All Ages","cause_name":"Nutritional deficiencies","year":2017,"val":11.246626771895361,"upper":14.39447310389149,"lower":8.656038068809535,"all_causes_val":1052.6832546462194,"population":200205.978303347,"death_rate":0.005258001102500649,"location_name_en":"São Tomé and Príncipe","location_name_de":"São Tomé und Príncipe","bounds":{"northeast":{"lat":1.8961687,"lng":7.658843900000001},"southwest":{"lat":-0.09887689999999999,"lng":6.328125}},"center":{"lat":0.18636,"lng":6.613080999999999}},{"location_name":"Cameroon","sex_name":"Both","age_name":"All Ages","cause_name":"Nutritional deficiencies","year":2017,"val":2030.9308408554784,"upper":2835.764717836454,"lower":1377.3177158458452,"all_causes_val":191215.04806230552,"population":27769738.26238,"death_rate":0.006885734617144262,"location_name_en":"Cameroon","location_name_de":"Kamerun","bounds":{"northeast":{"lat":13.083335,"lng":16.1944081},"southwest":{"lat":1.6559,"lng":8.3936001}},"center":{"lat":7.369721999999999,"lng":12.354722}},{"location_name":"Senegal","sex_name":"Both","age_name":"All Ages","cause_name":"Nutritional deficiencies","year":2017,"val":895.6118945550256,"upper":1174.740287253537,"lower":671.2831592122873,"all_causes_val":87598.8296660664,"population":14688033.8682018,"death_rate":0.005963958856039239,"location_name_en":"Senegal","location_name_de":"Senegal","bounds":{"northeast":{"lat":16.6929572,"lng":-11.3457683},"southwest":{"lat":12.2649001,"lng":-17.6879999}},"center":{"lat":14.497401,"lng":-14.452362}},{"location_name":"Mozambique","sex_name":"Both","age_name":"All Ages","cause_name":"Nutritional deficiencies","year":2017,"val":2552.6294039363406,"upper":3306.702423694883,"lower":1983.5264612371534,"all_causes_val":256849.81779911567,"population":30035304.064718,"death_rate":0.008551597055440938,"location_name_en":"Mozambique","location_name_de":"Mosambik","bounds":{"northeast":{"lat":-10.3128929,"lng":41.3965},"southwest":{"lat":-26.9612,"lng":30.2155501}},"center":{"lat":-18.665695,"lng":35.529562}},{"location_name":"Papua New Guinea","sex_name":"Both","age_name":"All Ages","cause_name":"Nutritional deficiencies","year":2017,"val":841.1056463570922,"upper":1153.4799144296062,"lower":557.669441263973,"all_causes_val":84869.33194772842,"population":9227550.75112999,"death_rate":0.009197384467090085,"location_name_en":"Papua New Guinea","location_name_de":"Papua-Neuguinea","bounds":{"northeast":{"lat":-0.6702,"lng":159.9609001},"southwest":{"lat":-12.0823,"lng":140.8419695}},"center":{"lat":-6.314992999999999,"lng":143.95555}},{"location_name":"Togo","sex_name":"Both","age_name":"All Ages","cause_name":"Nutritional deficiencies","year":2017,"val":489.2097694174993,"upper":662.0066364404897,"lower":347.0057752099524,"all_causes_val":50468.384006369786,"population":7516030.25407419,"death_rate":0.006714765946958842,"location_name_en":"Togo","location_name_de":"Togo","bounds":{"northeast":{"lat":11.139617,"lng":1.8089071},"southwest":{"lat":6.0812,"lng":-0.1440418}},"center":{"lat":8.619543,"lng":0.824782}},{"location_name":"Bolivia","sex_name":"Both","age_name":"All Ages","cause_name":"Nutritional deficiencies","year":2017,"val":641.4932787177752,"upper":831.5123139744261,"lower":504.41141604617656,"all_causes_val":66605.3691746575,"population":11542994.7104482,"death_rate":0.005770198362333938,"location_name_en":"Bolivia","location_name_de":"Bolivien","bounds":{"northeast":{"lat":-9.669323,"lng":-57.453803},"southwest":{"lat":-22.8980899,"lng":-69.64498999999999}},"center":{"lat":-16.290154,"lng":-63.58865299999999}},{"location_name":"Congo","sex_name":"Both","age_name":"All Ages","cause_name":"Nutritional deficiencies","year":2017,"val":341.5341414850637,"upper":449.35385177382517,"lower":256.45463082533615,"all_causes_val":37911.61084852652,"population":4913072.3787746,"death_rate":0.007716477170642109,"location_name_en":"Democratic Republic of the Congo","location_name_de":"Demokratische Republik Kongo","bounds":{"northeast":{"lat":5.3920029,"lng":31.314612},"southwest":{"lat":-13.4590349,"lng":12.1454}},"center":{"lat":-4.038333,"lng":21.758664}},{"location_name":"Mexico","sex_name":"Both","age_name":"All Ages","cause_name":"Nutritional deficiencies","year":2017,"val":6198.598157500274,"upper":6364.645327345303,"lower":6022.269663877212,"all_causes_val":711319.577012929,"population":126569719.939461,"death_rate":0.005619982230767021,"location_name_en":"Mexico","location_name_de":"Mexiko","bounds":{"northeast":{"lat":32.7186534,"lng":-86.5887},"southwest":{"lat":14.3895,"lng":-118.6523001}},"center":{"lat":23.634501,"lng":-102.552784}},{"location_name":"Namibia","sex_name":"Both","age_name":"All Ages","cause_name":"Nutritional deficiencies","year":2017,"val":135.4810908952557,"upper":176.12658463041367,"lower":103.70596711226297,"all_causes_val":17000.852741055285,"population":2353502.57540904,"death_rate":0.007223638894085564,"location_name_en":"Namibia","location_name_de":"Namibia","bounds":{"northeast":{"lat":-16.9634849,"lng":25.261752},"southwest":{"lat":-28.97063889999999,"lng":11.4696999}},"center":{"lat":-22.95764,"lng":18.49041}},{"location_name":"Swaziland","sex_name":"Both","age_name":"All Ages","cause_name":"Nutritional deficiencies","year":2017,"val":78.67302752572233,"upper":109.29614942362211,"lower":54.78323656012885,"all_causes_val":10124.385382526321,"population":1124435.55566194,"death_rate":0.00900397122053494,"location_name_en":"Swaziland","location_name_de":"Swasiland","bounds":{"northeast":{"lat":-25.71792,"lng":32.1349067},"southwest":{"lat":-27.317402,"lng":30.79064}},"center":{"lat":-26.522503,"lng":31.465866}},{"location_name":"Indonesia","sex_name":"Both","age_name":"All Ages","cause_name":"Nutritional deficiencies","year":2017,"val":12316.080586657266,"upper":13123.49983259933,"lower":11592.773064798574,"all_causes_val":1642526.1805629462,"population":258134673.218752,"death_rate":0.00636305909656319,"location_name_en":"Indonesia","location_name_de":"Indonesien","bounds":{"northeast":{"lat":6.216999899999999,"lng":141.0425},"southwest":{"lat":-11.1082999,"lng":94.7351}},"center":{"lat":-0.789275,"lng":113.921327}},{"location_name":"Paraguay","sex_name":"Both","age_name":"All Ages","cause_name":"Nutritional deficiencies","year":2017,"val":242.12723298283456,"upper":286.0013537704783,"lower":205.8905556569862,"all_causes_val":32695.74516727453,"population":6931174.92554984,"death_rate":0.0047172009822967825,"location_name_en":"Paraguay","location_name_de":"Paraguay","bounds":{"northeast":{"lat":-19.2876589,"lng":-54.258562},"southwest":{"lat":-27.5817594,"lng":-62.63895230000001}},"center":{"lat":-23.442503,"lng":-58.443832}},{"location_name":"Haiti","sex_name":"Both","age_name":"All Ages","cause_name":"Nutritional deficiencies","year":2017,"val":647.1608115869203,"upper":896.1790243943049,"lower":467.41866597650903,"all_causes_val":88629.35933913157,"population":11824835.2691707,"death_rate":0.007495187655611826,"location_name_en":"Haiti","location_name_de":"Haiti","bounds":{"northeast":{"lat":20.1282,"lng":-71.621754},"southwest":{"lat":17.9422,"lng":-74.6082}},"center":{"lat":18.971187,"lng":-72.285215}},{"location_name":"Ecuador","sex_name":"Both","age_name":"All Ages","cause_name":"Nutritional deficiencies","year":2017,"val":634.0097073316983,"upper":699.0950250169382,"lower":575.2608086615057,"all_causes_val":87369.65924199428,"population":16686189.2915103,"death_rate":0.005236046272497144,"location_name_en":"Ecuador","location_name_de":"Ecuador","bounds":{"northeast":{"lat":2.2955,"lng":-75.1887938},"southwest":{"lat":-5.0143509,"lng":-92.60379999999999}},"center":{"lat":-1.831239,"lng":-78.18340599999999}},{"location_name":"Guyana","sex_name":"Both","age_name":"All Ages","cause_name":"Nutritional deficiencies","year":2017,"val":40.069579143080176,"upper":45.65447515747003,"lower":35.252233345941455,"all_causes_val":5558.660784600047,"population":742302.328010887,"death_rate":0.007488405431106934,"location_name_en":"Guyana","location_name_de":"Guyana","bounds":{"northeast":{"lat":8.722199999999999,"lng":-56.49112},"southwest":{"lat":1.164724,"lng":-61.414905}},"center":{"lat":4.860416,"lng":-58.93018}},{"location_name":"Equatorial Guinea","sex_name":"Both","age_name":"All Ages","cause_name":"Nutritional deficiencies","year":2017,"val":51.366947053191254,"upper":79.0327580227817,"lower":32.07575415499261,"all_causes_val":7261.563150108964,"population":1345030.91787417,"death_rate":0.005398807606286041,"location_name_en":"Equatorial Guinea","location_name_de":"Äquatorialguinea","bounds":{"northeast":{"lat":3.8355,"lng":11.3333},"southwest":{"lat":-1.5475,"lng":5.541900099999999}},"center":{"lat":1.650801,"lng":10.267895}},{"location_name":"Gabon","sex_name":"Both","age_name":"All Ages","cause_name":"Nutritional deficiencies","year":2017,"val":78.7198845998904,"upper":111.52966482963163,"lower":59.859604239557946,"all_causes_val":11135.352932680653,"population":1702719.80811545,"death_rate":0.006539744754015124,"location_name_en":"Gabon","location_name_de":"Gabun","bounds":{"northeast":{"lat":2.318109,"lng":14.5269234},"southwest":{"lat":-4.1656,"lng":8.421}},"center":{"lat":-0.803689,"lng":11.609444}},{"location_name":"Saint Vincent and the Grenadines","sex_name":"Both","age_name":"All Ages","cause_name":"Nutritional deficiencies","year":2017,"val":6.922260737636342,"upper":7.59037347761868,"lower":6.317664164749139,"all_causes_val":1005.1716443199821,"population":114111.645773981,"death_rate":0.008808668365987014,"location_name_en":"Saint Vincent and the Grenadines","location_name_de":"Sankt Vincent und die Grenadinen","bounds":{"northeast":{"lat":13.4136657,"lng":-61.0846},"southwest":{"lat":12.5294999,"lng":-61.4822}},"center":{"lat":12.984305,"lng":-61.287228}},{"location_name":"Lesotho","sex_name":"Both","age_name":"All Ages","cause_name":"Nutritional deficiencies","year":2017,"val":172.2995698975715,"upper":233.05456860933356,"lower":127.77640299935561,"all_causes_val":25216.91565434806,"population":1947578.24508562,"death_rate":0.01294783186143028,"location_name_en":"Lesotho","location_name_de":"Lesotho","bounds":{"northeast":{"lat":-28.5708011,"lng":29.4557087},"southwest":{"lat":-30.6755788,"lng":27.011231}},"center":{"lat":-29.609988,"lng":28.233608}},{"location_name":"Afghanistan","sex_name":"Both","age_name":"All Ages","cause_name":"Nutritional deficiencies","year":2017,"val":1440.6622741361234,"upper":1972.8512635368556,"lower":1029.4130964213823,"all_causes_val":226650.05548051314,"population":32854766.5837302,"death_rate":0.006898544078920685,"location_name_en":"Afghanistan","location_name_de":"Afghanistan","bounds":{"northeast":{"lat":38.49087670000001,"lng":74.8898619},"southwest":{"lat":29.3772,"lng":60.5170005}},"center":{"lat":33.93911,"lng":67.709953}},{"location_name":"Philippines","sex_name":"Both","age_name":"All Ages","cause_name":"Nutritional deficiencies","year":2017,"val":4132.15339932405,"upper":4700.253072765355,"lower":3675.4015840690704,"all_causes_val":666558.9507055759,"population":103470619.266107,"death_rate":0.006442011804252485,"location_name_en":"Philippines","location_name_de":"Philippinen","bounds":{"northeast":{"lat":19.7610407,"lng":130.6600275},"southwest":{"lat":3.6346296,"lng":114.583481}},"center":{"lat":12.879721,"lng":121.774017}},{"location_name":"Panama","sex_name":"Both","age_name":"All Ages","cause_name":"Nutritional deficiencies","year":2017,"val":114.2216405789395,"upper":134.1483140763687,"lower":97.33209661439939,"all_causes_val":18978.510380645643,"population":3921083.47230215,"death_rate":0.004840118940263968,"location_name_en":"Panama","location_name_de":"Panama","bounds":{"northeast":{"lat":9.7145001,"lng":-77.1584879},"southwest":{"lat":7.0409,"lng":-83.05224109999999}},"center":{"lat":8.537981,"lng":-80.782127}},{"location_name":"Timor-Leste","sex_name":"Both","age_name":"All Ages","cause_name":"Nutritional deficiencies","year":2017,"val":42.88791838706971,"upper":52.66820321412803,"lower":29.840574016306526,"all_causes_val":7192.822324596604,"population":1287486.37372353,"death_rate":0.00558671724330122,"location_name_en":"Timor-Leste","location_name_de":"Osttimor","bounds":{"northeast":{"lat":-8.048399999999999,"lng":127.4249},"southwest":{"lat":-9.5303001,"lng":124.0332}},"center":{"lat":-8.874217,"lng":125.727539}},{"location_name":"Belize","sex_name":"Both","age_name":"All Ages","cause_name":"Nutritional deficiencies","year":2017,"val":11.168913272547355,"upper":12.797240324370284,"lower":9.874817979970947,"all_causes_val":1874.538934725829,"population":394958.436171146,"death_rate":0.004746167604110984,"location_name_en":"Belize","location_name_de":"Belize","bounds":{"northeast":{"lat":18.4959419,"lng":-87.41269989999999},"southwest":{"lat":15.8856189,"lng":-89.22758789999999}},"center":{"lat":17.189877,"lng":-88.49765}},{"location_name":"El Salvador","sex_name":"Both","age_name":"All Ages","cause_name":"Nutritional deficiencies","year":2017,"val":239.94419058907846,"upper":279.1495152587131,"lower":204.9304557093051,"all_causes_val":41517.775540977505,"population":6086946.8978724,"death_rate":0.006820788194404886,"location_name_en":"El Salvador","location_name_de":"El Salvador","bounds":{"northeast":{"lat":14.4505567,"lng":-87.6682},"southwest":{"lat":13.0473999,"lng":-90.19229999999999}},"center":{"lat":13.794185,"lng":-88.89653}},{"location_name":"Botswana","sex_name":"Both","age_name":"All Ages","cause_name":"Nutritional deficiencies","year":2017,"val":80.83075195804346,"upper":102.46676078862652,"lower":63.010319021002935,"all_causes_val":14257.946329847937,"population":2281842.99145463,"death_rate":0.006248434437971026,"location_name_en":"Botswana","location_name_de":"Botsuana","bounds":{"northeast":{"lat":-17.7781369,"lng":29.375304},"southwest":{"lat":-26.9075448,"lng":19.998903}},"center":{"lat":-22.328474,"lng":24.684866}},{"location_name":"Bangladesh","sex_name":"Both","age_name":"All Ages","cause_name":"Nutritional deficiencies","year":2017,"val":4961.6918052145675,"upper":6321.665799954739,"lower":3837.8903257890665,"all_causes_val":887218.6314470702,"population":156981002.091688,"death_rate":0.005651757981063669,"location_name_en":"Bangladesh","location_name_de":"Bangladesch","bounds":{"northeast":{"lat":26.633914,"lng":92.6801153},"southwest":{"lat":20.3794,"lng":88.00861410000002}},"center":{"lat":23.684994,"lng":90.356331}},{"location_name":"Solomon Islands","sex_name":"Both","age_name":"All Ages","cause_name":"Nutritional deficiencies","year":2017,"val":22.86720280521375,"upper":28.481761497141147,"lower":17.643167271125748,"all_causes_val":4131.793572014238,"population":637606.723656209,"death_rate":0.006480159977488033,"location_name_en":"Solomon Islands","location_name_de":"Salomonen","bounds":{"northeast":{"lat":-6.075011,"lng":168.0249023},"southwest":{"lat":-12.6832149,"lng":155.1187134}},"center":{"lat":-9.64571,"lng":160.156194}},{"location_name":"Vanuatu","sex_name":"Both","age_name":"All Ages","cause_name":"Nutritional deficiencies","year":2017,"val":12.186873286662365,"upper":15.951990738962875,"lower":8.83459588053713,"all_causes_val":2236.166768279572,"population":287567.717743327,"death_rate":0.007776139776146559,"location_name_en":"Vanuatu","location_name_de":"Vanuatu","bounds":{"northeast":{"lat":-12.8064449,"lng":170.5023193},"southwest":{"lat":-20.5350773,"lng":166.0583495}},"center":{"lat":-15.376706,"lng":166.959158}},{"location_name":"Tonga","sex_name":"Both","age_name":"All Ages","cause_name":"Nutritional deficiencies","year":2017,"val":3.786159235056187,"upper":4.572268529970393,"lower":3.0883237245230437,"all_causes_val":700.788622087912,"population":102838.04648111,"death_rate":0.006814487887191028,"location_name_en":"Tonga","location_name_de":"Tonga","bounds":{"northeast":{"lat":-15.4060236,"lng":-173.2543946},"southwest":{"lat":-21.8360059,"lng":-175.9570313}},"center":{"lat":-21.178986,"lng":-175.198242}},{"location_name":"Brazil","sex_name":"Both","age_name":"All Ages","cause_name":"Nutritional deficiencies","year":2017,"val":7197.331951223506,"upper":7462.273900644416,"lower":6997.431326761536,"all_causes_val":1349150.4221394218,"population":211812707.286102,"death_rate":0.00636954429895031,"location_name_en":"Brazil","location_name_de":"Brasilien","bounds":{"northeast":{"lat":5.2717863,"lng":-28.650543},"southwest":{"lat":-34.0891,"lng":-73.9828169}},"center":{"lat":-14.235004,"lng":-51.92528}},{"location_name":"France","sex_name":"Both","age_name":"All Ages","cause_name":"Nutritional deficiencies","year":2017,"val":3014.69317074896,"upper":3356.6106585519105,"lower":2714.8705467835484,"all_causes_val":579163.2916984223,"population":65712599.2589352,"death_rate":0.008813580625783437,"location_name_en":"France","location_name_de":"Frankreich","bounds":{"northeast":{"lat":51.1241999,"lng":9.6624999},"southwest":{"lat":41.31433,"lng":-5.5591}},"center":{"lat":46.227638,"lng":2.213749}},{"location_name":"Peru","sex_name":"Both","age_name":"All Ages","cause_name":"Nutritional deficiencies","year":2017,"val":718.5189166858881,"upper":824.2930249857935,"lower":615.526172329867,"all_causes_val":141758.55612471642,"population":33219611.6638377,"death_rate":0.0042673152702453875,"location_name_en":"Peru","location_name_de":"Peru","bounds":{"northeast":{"lat":-0.0387769,"lng":-68.65232879999999},"southwest":{"lat":-18.4483,"lng":-81.3867001}},"center":{"lat":-9.189967,"lng":-75.015152}},{"location_name":"Colombia","sex_name":"Both","age_name":"All Ages","cause_name":"Nutritional deficiencies","year":2017,"val":1153.1132925047445,"upper":1331.5450949662843,"lower":995.1301311463959,"all_causes_val":234216.5810971164,"population":50606157.0714899,"death_rate":0.004628223019705788,"location_name_en":"Colombia","location_name_de":"Kolumbien","bounds":{"northeast":{"lat":13.5177999,"lng":-66.8463122},"southwest":{"lat":-4.227109899999999,"lng":-81.8317}},"center":{"lat":4.570868,"lng":-74.297333}},{"location_name":"American Samoa","sex_name":"Both","age_name":"All Ages","cause_name":"Nutritional deficiencies","year":2017,"val":1.5723620918113483,"upper":1.8028299658659122,"lower":1.3707898410029502,"all_causes_val":327.94781608249633,"population":55630.7723374409,"death_rate":0.005895079329354902,"location_name_en":"American Samoa","location_name_de":"Amerikanisch-Samoa","bounds":{"northeast":{"lat":-13.4056506,"lng":-169.2059326},"southwest":{"lat":-14.7217608,"lng":-171.0076904}},"center":{"lat":-14.270972,"lng":-170.132217}},{"location_name":"Honduras","sex_name":"Both","age_name":"All Ages","cause_name":"Nutritional deficiencies","year":2017,"val":212.97692066527907,"upper":288.138774664786,"lower":160.0666099109223,"all_causes_val":44427.874499215155,"population":9498814.63842634,"death_rate":0.004677201965757644,"location_name_en":"Honduras","location_name_de":"Honduras","bounds":{"northeast":{"lat":17.4677999,"lng":-83.0621001},"southwest":{"lat":12.9808201,"lng":-89.3564822}},"center":{"lat":15.199999,"lng":-86.241905}},{"location_name":"Laos","sex_name":"Both","age_name":"All Ages","cause_name":"Nutritional deficiencies","year":2017,"val":206.30880101233006,"upper":271.96305814737923,"lower":151.22087585369184,"all_causes_val":45555.09049897435,"population":6970176.35667748,"death_rate":0.006535715621503929,"location_name_en":"Laos","location_name_de":"Laos","bounds":{"northeast":{"lat":22.5090449,"lng":107.635094},"southwest":{"lat":13.9097198,"lng":100.0832139}},"center":{"lat":19.85627,"lng":102.495496}},{"location_name":"Yemen","sex_name":"Both","age_name":"All Ages","cause_name":"Nutritional deficiencies","year":2017,"val":745.3607573767072,"upper":1502.0983140557305,"lower":391.2246857489822,"all_causes_val":164695.35386264572,"population":30449159.2929288,"death_rate":0.005408863748198554,"location_name_en":"Yemen","location_name_de":"Jemen","bounds":{"northeast":{"lat":18.9996331,"lng":54.67899999999999},"southwest":{"lat":11.7975,"lng":41.70959999999999}},"center":{"lat":15.552727,"lng":48.516388}},{"location_name":"India","sex_name":"Both","age_name":"All Ages","cause_name":"Nutritional deficiencies","year":2017,"val":43149.89431707792,"upper":50474.14048173153,"lower":38366.12828219125,"all_causes_val":9909501.469219549,"population":1380560358.77939,"death_rate":0.007177883535625306,"location_name_en":"India","location_name_de":"Indien","bounds":{"northeast":{"lat":35.513327,"lng":97.39535869999999},"southwest":{"lat":6.4626999,"lng":68.1097}},"center":{"lat":20.593684,"lng":78.96288}},{"location_name":"Nicaragua","sex_name":"Both","age_name":"All Ages","cause_name":"Nutritional deficiencies","year":2017,"val":99.67655565358777,"upper":120.47804895895435,"lower":82.14402436695768,"all_causes_val":23173.67946185679,"population":6396569.90462011,"death_rate":0.0036228290798665267,"location_name_en":"Nicaragua","location_name_de":"Nicaragua","bounds":{"northeast":{"lat":15.0297369,"lng":-82.2766},"southwest":{"lat":10.7080549,"lng":-87.7588}},"center":{"lat":12.865416,"lng":-85.207229}},{"location_name":"Samoa","sex_name":"Both","age_name":"All Ages","cause_name":"Nutritional deficiencies","year":2017,"val":4.59663371889471,"upper":5.559706206783521,"lower":3.6351746242661997,"all_causes_val":1083.7520187503724,"population":198918.382340926,"death_rate":0.0054482245732972575,"location_name_en":"Samoa","location_name_de":"Samoa","bounds":{"northeast":{"lat":-13.4203449,"lng":-171.3950515},"southwest":{"lat":-14.0833012,"lng":-172.8108215}},"center":{"lat":-13.759029,"lng":-172.104629}},{"location_name":"Nepal","sex_name":"Both","age_name":"All Ages","cause_name":"Nutritional deficiencies","year":2017,"val":758.3753005307346,"upper":1002.8539399176144,"lower":571.9825004473571,"all_causes_val":182751.43607782494,"population":29891523.8841289,"death_rate":0.006113821322266478,"location_name_en":"Nepal","location_name_de":"Nepal","bounds":{"northeast":{"lat":30.4473898,"lng":88.20182969999999},"southwest":{"lat":26.3473741,"lng":80.05846980000001}},"center":{"lat":28.394857,"lng":84.12400799999999}},{"location_name":"Maldives","sex_name":"Both","age_name":"All Ages","cause_name":"Nutritional deficiencies","year":2017,"val":4.72035858129965,"upper":5.3463662611863985,"lower":4.159972887772897,"all_causes_val":1149.3889337899168,"population":458600.875016181,"death_rate":0.0025062946810761374,"location_name_en":"Maldives","location_name_de":"Malediven","bounds":{"northeast":{"lat":7.5149809,"lng":74.7290038},"southwest":{"lat":-1.2907844,"lng":71.75170899999999}},"center":{"lat":3.202778,"lng":73.22068}},{"location_name":"Antigua and Barbuda","sex_name":"Both","age_name":"All Ages","cause_name":"Nutritional deficiencies","year":2017,"val":2.2983851184711677,"upper":2.5592236029283297,"lower":2.0601966690045206,"all_causes_val":563.3243667609964,"population":88957.3530462172,"death_rate":0.0063325216800046305,"location_name_en":"Antigua and Barbuda","location_name_de":"Antigua und Barbuda","bounds":{"northeast":{"lat":17.7499946,"lng":-61.6394},"southwest":{"lat":16.9018,"lng":-62.38100009999999}},"center":{"lat":17.060816,"lng":-61.796428}},{"location_name":"Uruguay","sex_name":"Both","age_name":"All Ages","cause_name":"Nutritional deficiencies","year":2017,"val":133.96697200652505,"upper":150.17748366764658,"lower":119.80323350859503,"all_causes_val":33513.55311245432,"population":3421531.50545919,"death_rate":0.00979489829597714,"location_name_en":"Uruguay","location_name_de":"Uruguay","bounds":{"northeast":{"lat":-30.0852149,"lng":-53.0779284},"southwest":{"lat":-35.1558001,"lng":-58.4913609}},"center":{"lat":-32.522779,"lng":-55.765835}},{"location_name":"Pakistan","sex_name":"Both","age_name":"All Ages","cause_name":"Nutritional deficiencies","year":2017,"val":5648.260224635783,"upper":7299.508298926538,"lower":4314.8669904045055,"all_causes_val":1416037.4416730835,"population":214287442.615509,"death_rate":0.006608121429746337,"location_name_en":"Pakistan","location_name_de":"Pakistan","bounds":{"northeast":{"lat":37.0841069,"lng":77.8231711},"southwest":{"lat":23.6344999,"lng":60.8729721}},"center":{"lat":30.375321,"lng":69.34511599999999}},{"location_name":"Chile","sex_name":"Both","age_name":"All Ages","cause_name":"Nutritional deficiencies","year":2017,"val":443.798475558055,"upper":494.54856683961685,"lower":401.62038958596963,"all_causes_val":112316.15231399277,"population":17918234.9028369,"death_rate":0.006268259843842674,"location_name_en":"Chile","location_name_de":"Chile","bounds":{"northeast":{"lat":-17.4983291,"lng":-66.3327},"southwest":{"lat":-56.1455,"lng":-110.0281}},"center":{"lat":-35.675147,"lng":-71.542969}},{"location_name":"Northern Mariana Islands","sex_name":"Both","age_name":"All Ages","cause_name":"Nutritional deficiencies","year":2017,"val":1.0477221491768849,"upper":1.205925118511133,"lower":0.9122274324658023,"all_causes_val":265.4824325601155,"population":44878.1533004231,"death_rate":0.005915627382947876,"location_name_en":"Northern Mariana Islands","location_name_de":"Nördliche Marianen","bounds":{"northeast":{"lat":20.6584862,"lng":146.2060546},"southwest":{"lat":13.9713848,"lng":144.7668457}},"center":{"lat":15.0979,"lng":145.6739}},{"location_name":"South Africa","sex_name":"Both","age_name":"All Ages","cause_name":"Nutritional deficiencies","year":2017,"val":1841.0454136421315,"upper":2027.813853417239,"lower":1669.9343255224082,"all_causes_val":475367.45804488356,"population":54952859.6877336,"death_rate":0.0086504589705819,"location_name_en":"South Africa","location_name_de":"Südafrika","bounds":{"northeast":{"lat":-22.1254239,"lng":38.2216904},"southwest":{"lat":-47.1313489,"lng":16.2816999}},"center":{"lat":-30.559482,"lng":22.937506}},{"location_name":"Saint Lucia","sex_name":"Both","age_name":"All Ages","cause_name":"Nutritional deficiencies","year":2017,"val":4.882113839832166,"upper":5.317678864789271,"lower":4.453287994559814,"all_causes_val":1329.6665750066068,"population":176474.444847228,"death_rate":0.007534612595935262,"location_name_en":"Saint Lucia","location_name_de":"Sankt Lucia","bounds":{"northeast":{"lat":14.1209277,"lng":-60.85979460000001},"southwest":{"lat":13.7047779,"lng":-61.0812378}},"center":{"lat":13.909444,"lng":-60.978893}},{"location_name":"Marshall Islands","sex_name":"Both","age_name":"All Ages","cause_name":"Nutritional deficiencies","year":2017,"val":1.5224574878598518,"upper":1.9215179275790981,"lower":1.2024795936393793,"all_causes_val":415.0576149167002,"population":56310.6479049249,"death_rate":0.007370854897949051,"location_name_en":"Marshall Islands","location_name_de":"Marshallinseln","bounds":{"northeast":{"lat":15.0190749,"lng":172.5732421},"southwest":{"lat":4.1601583,"lng":159.8840332}},"center":{"lat":7.131474,"lng":171.184478}},{"location_name":"Grenada","sex_name":"Both","age_name":"All Ages","cause_name":"Nutritional deficiencies","year":2017,"val":4.1753707270969675,"upper":4.6239053246378266,"lower":3.7645171849633066,"all_causes_val":1141.363101587185,"population":110878.62637542,"death_rate":0.010293806289795511,"location_name_en":"Grenada","location_name_de":"Grenada","bounds":{"northeast":{"lat":12.5367,"lng":-61.3746999},"southwest":{"lat":11.9829051,"lng":-61.80589999999999}},"center":{"lat":12.1165,"lng":-61.67899999999999}},{"location_name":"Cambodia","sex_name":"Both","age_name":"All Ages","cause_name":"Nutritional deficiencies","year":2017,"val":363.82785447574855,"upper":419.7435075234678,"lower":307.88409526420867,"all_causes_val":101856.85638815888,"population":16122383.1586491,"death_rate":0.006317729543198222,"location_name_en":"Cambodia","location_name_de":"Kambodscha","bounds":{"northeast":{"lat":14.6901791,"lng":107.627687},"southwest":{"lat":9.6007,"lng":102.333542}},"center":{"lat":12.565679,"lng":104.990963}},{"location_name":"Federated States of Micronesia","sex_name":"Both","age_name":"All Ages","cause_name":"Nutritional deficiencies","year":2017,"val":2.646847485582152,"upper":3.2581736389687452,"lower":2.0574213184696304,"all_causes_val":747.3489716065475,"population":103926.311991094,"death_rate":0.007191143005927044,"location_name_en":"Federated States of Micronesia","location_name_de":"Föderierte Staaten von Mikronesien","bounds":{"northeast":{"lat":10.2770863,"lng":163.5177612},"southwest":{"lat":0.1538084,"lng":136.9226075}},"center":{"lat":7.425554,"lng":150.550812}},{"location_name":"Dominica","sex_name":"Both","age_name":"All Ages","cause_name":"Nutritional deficiencies","year":2017,"val":2.2637747295859505,"upper":2.5364807294338143,"lower":2.0214327324303016,"all_causes_val":687.8771962972756,"population":68933.1144715051,"death_rate":0.00997890783799742,"location_name_en":"Dominica","location_name_de":"Dominica","bounds":{"northeast":{"lat":15.6485199,"lng":-61.23090180000001},"southwest":{"lat":15.2042266,"lng":-61.484108}},"center":{"lat":15.414999,"lng":-61.37097600000001}},{"location_name":"Sudan","sex_name":"Both","age_name":"All Ages","cause_name":"Nutritional deficiencies","year":2017,"val":686.0885877314137,"upper":1091.438497841838,"lower":435.5686584707259,"all_causes_val":209005.5058132136,"population":40255550.5748627,"death_rate":0.0051919673890567924,"location_name_en":"Sudan","location_name_de":"Sudan","bounds":{"northeast":{"lat":22.224918,"lng":38.69379989999999},"southwest":{"lat":9.3472209,"lng":21.8146345}},"center":{"lat":12.862807,"lng":30.217636}},{"location_name":"Suriname","sex_name":"Both","age_name":"All Ages","cause_name":"Nutritional deficiencies","year":2017,"val":13.984879211759607,"upper":15.735503558847922,"lower":12.569334834146312,"all_causes_val":4297.7115580589325,"population":572463.16145942,"death_rate":0.007507402829384652,"location_name_en":"Suriname","location_name_de":"Suriname","bounds":{"northeast":{"lat":6.1295999,"lng":-53.94289999999999},"southwest":{"lat":1.837306,"lng":-58.07050590000001}},"center":{"lat":3.919305,"lng":-56.027783}},{"location_name":"Argentina","sex_name":"Both","age_name":"All Ages","cause_name":"Nutritional deficiencies","year":2017,"val":1075.354199416324,"upper":1187.5828560407451,"lower":973.6357385833551,"all_causes_val":332465.3298372004,"population":44265909.2005862,"death_rate":0.007510640487031896,"location_name_en":"Argentina","location_name_de":"Argentinien","bounds":{"northeast":{"lat":-21.7810459,"lng":-53.637481},"southwest":{"lat":-55.1250224,"lng":-73.5603601}},"center":{"lat":-38.416097,"lng":-63.61667199999999}},{"location_name":"Oman","sex_name":"Both","age_name":"All Ages","cause_name":"Nutritional deficiencies","year":2017,"val":34.7054605983116,"upper":40.775702091975646,"lower":29.909909326445256,"all_causes_val":11176.805976824942,"population":4535815.19361571,"death_rate":0.002464122875322746,"location_name_en":"Oman","location_name_de":"Oman","bounds":{"northeast":{"lat":26.4361001,"lng":60.30399999999999},"southwest":{"lat":16.4571999,"lng":52.0000019}},"center":{"lat":21.4735329,"lng":55.975413}},{"location_name":"Jamaica","sex_name":"Both","age_name":"All Ages","cause_name":"Nutritional deficiencies","year":2017,"val":61.167534819207724,"upper":70.94877088820161,"lower":51.56259152898547,"all_causes_val":20259.910545902632,"population":2779264.02879964,"death_rate":0.007289667457270282,"location_name_en":"Jamaica","location_name_de":"Jamaika","bounds":{"northeast":{"lat":18.5697821,"lng":-76.1448669},"southwest":{"lat":17.6688854,"lng":-78.4073639}},"center":{"lat":18.109581,"lng":-77.297508}},{"location_name":"Myanmar","sex_name":"Both","age_name":"All Ages","cause_name":"Nutritional deficiencies","year":2017,"val":1215.1021021966108,"upper":1433.0493460523214,"lower":1047.744435764142,"all_causes_val":409963.24895793735,"population":52795003.5012292,"death_rate":0.007765190297759757,"location_name_en":"Myanmar (Burma)","location_name_de":"Myanmar (Birma)","bounds":{"northeast":{"lat":28.5478351,"lng":101.1702717},"southwest":{"lat":9.4518,"lng":92.171808}},"center":{"lat":21.916221,"lng":95.955974}},{"location_name":"Puerto Rico","sex_name":"Both","age_name":"All Ages","cause_name":"Nutritional deficiencies","year":2017,"val":91.22598196073507,"upper":99.87563754319781,"lower":83.46286289127669,"all_causes_val":34519.649664422854,"population":3665882.36443056,"death_rate":0.009416464095891676,"location_name_en":"Puerto Rico","location_name_de":"Puerto Rico","bounds":{"northeast":{"lat":18.5720479,"lng":-65.2105715},"southwest":{"lat":17.8449191,"lng":-67.9611844}},"center":{"lat":18.220833,"lng":-66.590149}},{"location_name":"Venezuela","sex_name":"Both","age_name":"All Ages","cause_name":"Nutritional deficiencies","year":2017,"val":445.5755663565307,"upper":514.6960786001971,"lower":383.99540788506,"all_causes_val":172584.83700036426,"population":30831741.0257774,"death_rate":0.005597635140230057,"location_name_en":"Venezuela","location_name_de":"Venezuela","bounds":{"northeast":{"lat":12.770409,"lng":-59.80378},"southwest":{"lat":0.5438179,"lng":-73.4255611}},"center":{"lat":6.42375,"lng":-66.58973}},{"location_name":"Belgium","sex_name":"Both","age_name":"All Ages","cause_name":"Nutritional deficiencies","year":2017,"val":269.5527988359486,"upper":298.5232219440987,"lower":243.50104571360438,"all_causes_val":108891.57899005283,"population":11319410.8380034,"death_rate":0.009619898115586015,"location_name_en":"Belgium","location_name_de":"Belgien","bounds":{"northeast":{"lat":51.5051449,"lng":6.408124099999999},"southwest":{"lat":49.497013,"lng":2.5240999}},"center":{"lat":50.503887,"lng":4.469936}},{"location_name":"Virgin Islands, U.S.","sex_name":"Both","age_name":"All Ages","cause_name":"Nutritional deficiencies","year":2017,"val":3.071037805580558,"upper":3.5167398362829188,"lower":2.670873377704555,"all_causes_val":1256.8847524682822,"population":104952.34914958,"death_rate":0.011975765789453146,"location_name_en":"U.S. Virgin Islands","location_name_de":"Amerikanische Jungferninseln","bounds":{"northeast":{"lat":18.6286677,"lng":-64.0804819},"southwest":{"lat":17.5048927,"lng":-65.3968874}},"center":{"lat":18.335765,"lng":-64.896335}},{"location_name":"Guam","sex_name":"Both","age_name":"All Ages","cause_name":"Nutritional deficiencies","year":2017,"val":3.0229500277371435,"upper":3.4279234728545678,"lower":2.662328405519454,"all_causes_val":1251.8744668105658,"population":167836.747717223,"death_rate":0.007458881823185503,"location_name_en":"Guam","location_name_de":"Guam","bounds":{"northeast":{"lat":13.7994072,"lng":145.112915},"southwest":{"lat":13.1022175,"lng":144.4647218}},"center":{"lat":13.444304,"lng":144.793731}},{"location_name":"Dominican Republic","sex_name":"Both","age_name":"All Ages","cause_name":"Nutritional deficiencies","year":2017,"val":158.04698368146842,"upper":186.8335304382724,"lower":133.33809842396957,"all_causes_val":67052.56531838792,"population":10451749.6838031,"death_rate":0.006415439265857864,"location_name_en":"Dominican Republic","location_name_de":"Dominikanische Republik","bounds":{"northeast":{"lat":19.9786989,"lng":-68.25260010000001},"southwest":{"lat":17.3611001,"lng":-72.0075099}},"center":{"lat":18.735693,"lng":-70.162651}},{"location_name":"Cape Verde","sex_name":"Both","age_name":"All Ages","cause_name":"Nutritional deficiencies","year":2017,"val":6.818821919027799,"upper":8.062377129559904,"lower":5.784683261076165,"all_causes_val":3001.339103358731,"population":545805.876217364,"death_rate":0.005498913137687556,"location_name_en":"Cape Verde","location_name_de":"Kap Verde","bounds":{"northeast":{"lat":17.3191764,"lng":-22.5933839},"southwest":{"lat":14.7270733,"lng":-25.383911}},"center":{"lat":16.5388,"lng":-23.0418}},{"location_name":"Barbados","sex_name":"Both","age_name":"All Ages","cause_name":"Nutritional deficiencies","year":2017,"val":6.05816322385925,"upper":6.727088806962279,"lower":5.42359695840295,"all_causes_val":2778.112749729664,"population":295883.821639122,"death_rate":0.009389201255883535,"location_name_en":"Barbados","location_name_de":"Barbados","bounds":{"northeast":{"lat":13.3365093,"lng":-59.4174957},"southwest":{"lat":13.039844,"lng":-59.6530151}},"center":{"lat":13.193887,"lng":-59.543198}},{"location_name":"Fiji","sex_name":"Both","age_name":"All Ages","cause_name":"Nutritional deficiencies","year":2017,"val":15.721692213039884,"upper":18.666733933065185,"lower":13.203226275755437,"all_causes_val":7252.523883187355,"population":906938.749872977,"death_rate":0.007996707477989137,"location_name_en":"Fiji","location_name_de":"Fidschi","bounds":{"northeast":{"lat":-12.2084957,"lng":-177.8686523},"southwest":{"lat":-20.8998713,"lng":176.7919922}},"center":{"lat":-17.713371,"lng":178.065032}},{"location_name":"Trinidad and Tobago","sex_name":"Both","age_name":"All Ages","cause_name":"Nutritional deficiencies","year":2017,"val":23.886183862324387,"upper":27.78723236988553,"lower":20.46301136352923,"all_causes_val":11408.591157925579,"population":1391804.82775593,"death_rate":0.008196976278865313,"location_name_en":"Trinidad and Tobago","location_name_de":"Trinidad und Tobago","bounds":{"northeast":{"lat":11.4004,"lng":-60.45089989999999},"southwest":{"lat":9.9930001,"lng":-61.9725001}},"center":{"lat":10.691803,"lng":-61.222503}},{"location_name":"Bhutan","sex_name":"Both","age_name":"All Ages","cause_name":"Nutritional deficiencies","year":2017,"val":8.600221460499062,"upper":13.57476450212328,"lower":4.890692994153329,"all_causes_val":4139.807722084132,"population":957410.249150419,"death_rate":0.004323964283605372,"location_name_en":"Bhutan","location_name_de":"Bhutan","bounds":{"northeast":{"lat":28.246987,"lng":92.125232},"southwest":{"lat":26.702016,"lng":88.7464739}},"center":{"lat":27.514162,"lng":90.433601}},{"location_name":"Seychelles","sex_name":"Both","age_name":"All Ages","cause_name":"Nutritional deficiencies","year":2017,"val":1.4623937207665714,"upper":1.6212025797758007,"lower":1.3186898594384808,"all_causes_val":762.5560794977919,"population":100907.1462288,"death_rate":0.007557007684755533,"location_name_en":"Seychelles","location_name_de":"Seychellen","bounds":{"northeast":{"lat":-3.7091721,"lng":56.3928224},"southwest":{"lat":-10.4716073,"lng":45.9832764}},"center":{"lat":-4.679574,"lng":55.491977}},{"location_name":"United States","sex_name":"Both","age_name":"All Ages","cause_name":"Nutritional deficiencies","year":2017,"val":4904.562987210375,"upper":5052.087241129542,"lower":4774.208544412586,"all_causes_val":2857692.988212477,"population":324839023.992132,"death_rate":0.008797258879467923,"location_name_en":"United States","location_name_de":"USA","bounds":{"northeast":{"lat":49.38,"lng":-66.94},"southwest":{"lat":25.82,"lng":-124.39}},"center":{"lat":37.09024,"lng":-95.712891}},{"location_name":"Egypt","sex_name":"Both","age_name":"All Ages","cause_name":"Nutritional deficiencies","year":2017,"val":856.7131219158641,"upper":1045.1514425264897,"lower":709.7631917604343,"all_causes_val":499504.2814828908,"population":96484009.0450649,"death_rate":0.005177068059532919,"location_name_en":"Egypt","location_name_de":"Ägypten","bounds":{"northeast":{"lat":31.8122,"lng":37.0569},"southwest":{"lat":21.9999999,"lng":24.696775}},"center":{"lat":26.820553,"lng":30.802498}},{"location_name":"The Bahamas","sex_name":"Both","age_name":"All Ages","cause_name":"Nutritional deficiencies","year":2017,"val":4.140431428539767,"upper":4.549816597619721,"lower":3.7478230049191543,"all_causes_val":2517.1070019440717,"population":375440.527859965,"death_rate":0.006704409394190186,"location_name_en":"The Bahamas","location_name_de":"Bahamas","bounds":{"northeast":{"lat":27.444104,"lng":-70.6762782},"southwest":{"lat":21.4248332,"lng":-81.257154}},"center":{"lat":25.03428,"lng":-77.39627999999999}},{"location_name":"Vietnam","sex_name":"Both","age_name":"All Ages","cause_name":"Nutritional deficiencies","year":2017,"val":962.4609681704628,"upper":1312.574866898499,"lower":712.8530744310045,"all_causes_val":606304.4328256818,"population":96140732.1710466,"death_rate":0.006306426205980926,"location_name_en":"Vietnam","location_name_de":"Vietnam","bounds":{"northeast":{"lat":23.3926504,"lng":109.6765},"southwest":{"lat":8.1952001,"lng":102.1439156}},"center":{"lat":14.058324,"lng":108.277199}},{"location_name":"North Korea","sex_name":"Both","age_name":"All Ages","cause_name":"Nutritional deficiencies","year":2017,"val":373.09225386505693,"upper":445.54542565017994,"lower":303.6688517377947,"all_causes_val":235062.45339909778,"population":25716643.8125043,"death_rate":0.00914047941531167,"location_name_en":"North Korea","location_name_de":"Nordkorea","bounds":{"northeast":{"lat":43.01159,"lng":130.6990167},"southwest":{"lat":37.5892001,"lng":124.1491605}},"center":{"lat":40.339852,"lng":127.510093}},{"location_name":"Turkey","sex_name":"Both","age_name":"All Ages","cause_name":"Nutritional deficiencies","year":2017,"val":635.8272940410407,"upper":704.8120584504513,"lower":575.5733642576237,"all_causes_val":402293.61543732067,"population":80456850.9025266,"death_rate":0.005000116347142383,"location_name_en":"Turkey","location_name_de":"Türkei","bounds":{"northeast":{"lat":42.3666999,"lng":44.8178449},"southwest":{"lat":35.808592,"lng":25.5377}},"center":{"lat":38.963745,"lng":35.243322}},{"location_name":"Greenland","sex_name":"Both","age_name":"All Ages","cause_name":"Nutritional deficiencies","year":2017,"val":0.7066336158554961,"upper":0.8074703013067057,"lower":0.6264984422776239,"all_causes_val":448.65782940644266,"population":56155.3269104691,"death_rate":0.007989586279530659,"location_name_en":"Greenland","location_name_de":"Grönland","bounds":{"northeast":{"lat":83.9702561,"lng":-8.2617199},"southwest":{"lat":58.26329,"lng":-73.8281196}},"center":{"lat":71.706936,"lng":-42.604303}},{"location_name":"Mauritius","sex_name":"Both","age_name":"All Ages","cause_name":"Nutritional deficiencies","year":2017,"val":13.713599456115114,"upper":14.993373758484669,"lower":12.563480618079948,"all_causes_val":10332.646187656645,"population":1272111.99219805,"death_rate":0.008122434385515954,"location_name_en":"Mauritius","location_name_de":"Mauritius","bounds":{"northeast":{"lat":-18.7763,"lng":59.5844},"southwest":{"lat":-21.637,"lng":55.7666}},"center":{"lat":-20.348404,"lng":57.55215200000001}},{"location_name":"Norway","sex_name":"Both","age_name":"All Ages","cause_name":"Nutritional deficiencies","year":2017,"val":54.743991947267745,"upper":57.26626965332879,"lower":52.35914501243176,"all_causes_val":41374.29078124939,"population":5263177.84860988,"death_rate":0.007861085445208211,"location_name_en":"Norway","location_name_de":"Norwegen","bounds":{"northeast":{"lat":71.30780000000001,"lng":31.3549999},"southwest":{"lat":57.8097,"lng":4.0649}},"center":{"lat":60.47202399999999,"lng":8.468945999999999}},{"location_name":"Denmark","sex_name":"Both","age_name":"All Ages","cause_name":"Nutritional deficiencies","year":2017,"val":65.70172842118953,"upper":72.97163248993401,"lower":59.33664614140508,"all_causes_val":54215.63603208739,"population":5732278.15046228,"death_rate":0.00945795626259259,"location_name_en":"Denmark","location_name_de":"Dänemark","bounds":{"northeast":{"lat":58.02846,"lng":15.2298},"southwest":{"lat":54.4317001,"lng":7.855200099999999}},"center":{"lat":56.26392,"lng":9.501785}},{"location_name":"Canada","sex_name":"Both","age_name":"All Ages","cause_name":"Nutritional deficiencies","year":2017,"val":338.1520173060974,"upper":370.24107130756414,"lower":306.85358049677035,"all_causes_val":279402.96124054916,"population":35982917.5519005,"death_rate":0.007764877899007165,"location_name_en":"Canada","location_name_de":"Kanada","bounds":{"northeast":{"lat":70,"lng":-50},"southwest":{"lat":42,"lng":-142}},"center":{"lat":56.130366,"lng":-106.346771}},{"location_name":"Luxembourg","sex_name":"Both","age_name":"All Ages","cause_name":"Nutritional deficiencies","year":2017,"val":5.321831900514672,"upper":6.069531128550678,"lower":4.671132171135672,"all_causes_val":4416.967090777893,"population":590546.614173648,"death_rate":0.007479455448167383,"location_name_en":"Luxembourg","location_name_de":"Luxemburg","bounds":{"northeast":{"lat":50.18282,"lng":6.530970099999999},"southwest":{"lat":49.447779,"lng":5.7356699}},"center":{"lat":49.815273,"lng":6.129582999999999}},{"location_name":"Netherlands","sex_name":"Both","age_name":"All Ages","cause_name":"Nutritional deficiencies","year":2017,"val":176.7240914600396,"upper":194.02040820637185,"lower":159.77154943272012,"all_causes_val":152061.64052563105,"population":17029097.5555113,"death_rate":0.008929518433372167,"location_name_en":"Netherlands","location_name_de":"Niederlande","bounds":{"northeast":{"lat":53.6756,"lng":7.227140500000001},"southwest":{"lat":50.7503837,"lng":3.3316}},"center":{"lat":52.132633,"lng":5.291265999999999}},{"location_name":"Sweden","sex_name":"Both","age_name":"All Ages","cause_name":"Nutritional deficiencies","year":2017,"val":104.09727407415926,"upper":112.1213762048533,"lower":96.6185276323704,"all_causes_val":91940.99134960561,"population":10044996.4815641,"death_rate":0.009152914241269055,"location_name_en":"Sweden","location_name_de":"Schweden","bounds":{"northeast":{"lat":69.0599709,"lng":24.1773101},"southwest":{"lat":55.0059799,"lng":10.5798}},"center":{"lat":60.12816100000001,"lng":18.643501}},{"location_name":"Sri Lanka","sex_name":"Both","age_name":"All Ages","cause_name":"Nutritional deficiencies","year":2017,"val":138.32738556115763,"upper":162.45358225128155,"lower":116.41070714780088,"all_causes_val":125996.51110484505,"population":21596437.4934245,"death_rate":0.005834134039153791,"location_name_en":"Sri Lanka","location_name_de":"Sri Lanka","bounds":{"northeast":{"lat":10.03377,"lng":82.14479999999999},"southwest":{"lat":5.6816,"lng":79.26769999999999}},"center":{"lat":7.873053999999999,"lng":80.77179699999999}},{"location_name":"Switzerland","sex_name":"Both","age_name":"All Ages","cause_name":"Nutritional deficiencies","year":2017,"val":69.94054066301051,"upper":78.08104071512787,"lower":62.56482592675599,"all_causes_val":64565.073646009725,"population":8593087.23582921,"death_rate":0.0075136062132365134,"location_name_en":"Switzerland","location_name_de":"Schweiz","bounds":{"northeast":{"lat":47.8084546,"lng":10.4923401},"southwest":{"lat":45.81792,"lng":5.95608}},"center":{"lat":46.818188,"lng":8.227511999999999}},{"location_name":"China","sex_name":"Both","age_name":"All Ages","cause_name":"Nutritional deficiencies","year":2017,"val":10682.768075766597,"upper":11116.952104337493,"lower":10250.096538490125,"all_causes_val":10452104.19125356,"population":1412480390.20934,"death_rate":0.007399822513432898,"location_name_en":"China","location_name_de":"China","bounds":{"northeast":{"lat":53.5609739,"lng":134.7754563},"southwest":{"lat":17.9996,"lng":73.4994136}},"center":{"lat":35.86166,"lng":104.195397}},{"location_name":"Portugal","sex_name":"Both","age_name":"All Ages","cause_name":"Nutritional deficiencies","year":2017,"val":115.13714615416336,"upper":128.1669887012298,"lower":104.08582112873385,"all_causes_val":113754.21744223878,"population":10681711.5382614,"death_rate":0.010649437314870036,"location_name_en":"Portugal","location_name_de":"Portugal","bounds":{"northeast":{"lat":42.1543111,"lng":-6.189159200000001},"southwest":{"lat":32.2895,"lng":-31.4647999}},"center":{"lat":39.39987199999999,"lng":-8.224454}},{"location_name":"Thailand","sex_name":"Both","age_name":"All Ages","cause_name":"Nutritional deficiencies","year":2017,"val":463.96723515312476,"upper":517.614407085912,"lower":416.33350137912527,"all_causes_val":467227.98251778126,"population":70626062.6159991,"death_rate":0.006615517915222686,"location_name_en":"Thailand","location_name_de":"Thailand","bounds":{"northeast":{"lat":20.465143,"lng":105.636812},"southwest":{"lat":5.613038,"lng":97.343396}},"center":{"lat":15.870032,"lng":100.992541}},{"location_name":"Iraq","sex_name":"Both","age_name":"All Ages","cause_name":"Nutritional deficiencies","year":2017,"val":147.10689680720554,"upper":190.8328319469165,"lower":116.70966787698383,"all_causes_val":152177.65908493203,"population":43304441.5821135,"death_rate":0.0035141351215988805,"location_name_en":"Iraq","location_name_de":"Irak","bounds":{"northeast":{"lat":37.380645,"lng":48.6350999},"southwest":{"lat":29.0612079,"lng":38.7936741}},"center":{"lat":33.223191,"lng":43.679291}},{"location_name":"Bahrain","sex_name":"Both","age_name":"All Ages","cause_name":"Nutritional deficiencies","year":2017,"val":3.043424206721507,"upper":3.409032403482867,"lower":2.7408975879914474,"all_causes_val":3326.1728249568455,"population":1470372.70796636,"death_rate":0.002262129055399295,"location_name_en":"Bahrain","location_name_de":"Bahrain","bounds":{"northeast":{"lat":26.3469001,"lng":50.8509064},"southwest":{"lat":25.5349999,"lng":50.324246}},"center":{"lat":26.0667,"lng":50.5577}},{"location_name":"Tajikistan","sex_name":"Both","age_name":"All Ages","cause_name":"Nutritional deficiencies","year":2017,"val":43.326052204627146,"upper":57.35742449704914,"lower":33.00391545116466,"all_causes_val":47993.986299694094,"population":9243717.16391195,"death_rate":0.005192065642928325,"location_name_en":"Tajikistan","location_name_de":"Tadschikistan","bounds":{"northeast":{"lat":41.044367,"lng":75.1539564},"southwest":{"lat":36.6719898,"lng":67.34201209999999}},"center":{"lat":38.861034,"lng":71.276093}},{"location_name":"Japan","sex_name":"Both","age_name":"All Ages","cause_name":"Nutritional deficiencies","year":2017,"val":1238.028965714083,"upper":1295.5908854339702,"lower":1192.7674922263475,"all_causes_val":1371733.9062380062,"population":128363257.326853,"death_rate":0.010686343855743257,"location_name_en":"Japan","location_name_de":"Japan","bounds":{"northeast":{"lat":45.6412626,"lng":154.0031455},"southwest":{"lat":20.3585295,"lng":122.8554688}},"center":{"lat":36.204824,"lng":138.252924}},{"location_name":"Cyprus","sex_name":"Both","age_name":"All Ages","cause_name":"Nutritional deficiencies","year":2017,"val":6.622348663630058,"upper":7.661350507508134,"lower":5.771016244931703,"all_causes_val":7737.816165169317,"population":1262632.14825019,"death_rate":0.006128321836167973,"location_name_en":"Cyprus","location_name_de":"Zypern","bounds":{"northeast":{"lat":35.7071999,"lng":34.60450000000001},"southwest":{"lat":34.6304001,"lng":32.2459}},"center":{"lat":35.126413,"lng":33.429859}},{"location_name":"Israel","sex_name":"Both","age_name":"All Ages","cause_name":"Nutritional deficiencies","year":2017,"val":37.563021596686774,"upper":42.08323847468411,"lower":33.77241634439865,"all_causes_val":45677.0416584045,"population":8949198.03856104,"death_rate":0.005104037418949442,"location_name_en":"Israel","location_name_de":"Israel","bounds":{"northeast":{"lat":33.33280500000001,"lng":35.896244},"southwest":{"lat":29.47969999999999,"lng":34.2673871}},"center":{"lat":31.046051,"lng":34.851612}},{"location_name":"Costa Rica","sex_name":"Both","age_name":"All Ages","cause_name":"Nutritional deficiencies","year":2017,"val":18.80359345292548,"upper":20.545035560974462,"lower":17.06829152328759,"all_causes_val":23551.22803992005,"population":4653733.77309046,"death_rate":0.005060716660695463,"location_name_en":"Costa Rica","location_name_de":"Costa Rica","bounds":{"northeast":{"lat":11.2196806,"lng":-82.51830009999999},"southwest":{"lat":5.496099999999999,"lng":-87.09899999999999}},"center":{"lat":9.748916999999999,"lng":-83.753428}},{"location_name":"Spain","sex_name":"Both","age_name":"All Ages","cause_name":"Nutritional deficiencies","year":2017,"val":329.4580824921994,"upper":360.0405138345405,"lower":300.2096524215946,"all_causes_val":416519.7246624167,"population":46389212.6629041,"death_rate":0.008978805647966808,"location_name_en":"Spain","location_name_de":"Spanien","bounds":{"northeast":{"lat":45.244,"lng":5.098},"southwest":{"lat":35.17300000000001,"lng":-12.524}},"center":{"lat":40.46366700000001,"lng":-3.74922}},{"location_name":"Iceland","sex_name":"Both","age_name":"All Ages","cause_name":"Nutritional deficiencies","year":2017,"val":1.6644200260405684,"upper":1.8657742435448235,"lower":1.4861844677538176,"all_causes_val":2203.945548239474,"population":337470.541789902,"death_rate":0.006530779061633111,"location_name_en":"Iceland","location_name_de":"Island","bounds":{"northeast":{"lat":67.2466,"lng":-12.2388001},"southwest":{"lat":62.4819,"lng":-26.2572999}},"center":{"lat":64.963051,"lng":-19.020835}},{"location_name":"Czech Republic","sex_name":"Both","age_name":"All Ages","cause_name":"Nutritional deficiencies","year":2017,"val":79.90191407206207,"upper":87.52036574179992,"lower":72.47670531805996,"all_causes_val":110500.69380344561,"population":10592731.528577,"death_rate":0.010431746854466913,"location_name_en":"Czechia","location_name_de":"Tschechien","bounds":{"northeast":{"lat":51.0557185,"lng":18.8592361},"southwest":{"lat":48.5518081,"lng":12.090589}},"center":{"lat":49.81749199999999,"lng":15.472962}},{"location_name":"Australia","sex_name":"Both","age_name":"All Ages","cause_name":"Nutritional deficiencies","year":2017,"val":121.43471569365043,"upper":133.71272033835027,"lower":109.45750544002685,"all_causes_val":170872.38625999138,"population":23943081.5491762,"death_rate":0.0071366079553728335,"location_name_en":"Australia","location_name_de":"Australien","bounds":{"northeast":{"lat":-0.6911343999999999,"lng":166.7429167},"southwest":{"lat":-51.66332320000001,"lng":100.0911072}},"center":{"lat":-25.274398,"lng":133.775136}},{"location_name":"South Korea","sex_name":"Both","age_name":"All Ages","cause_name":"Nutritional deficiencies","year":2017,"val":205.4825191136489,"upper":228.5400529311609,"lower":185.14410041834205,"all_causes_val":299614.9480931351,"population":52670741.3412263,"death_rate":0.005688451319720106,"location_name_en":"South Korea","location_name_de":"Südkorea","bounds":{"northeast":{"lat":38.63400000000001,"lng":131.1603},"southwest":{"lat":33.0041,"lng":124.5863}},"center":{"lat":35.907757,"lng":127.766922}},{"location_name":"Kazakhstan","sex_name":"Both","age_name":"All Ages","cause_name":"Nutritional deficiencies","year":2017,"val":87.9536528738187,"upper":96.50252997670516,"lower":80.69180170724285,"all_causes_val":134591.65358481446,"population":17904334.2102603,"death_rate":0.007517266601719546,"location_name_en":"Kazakhstan","location_name_de":"Kasachstan","bounds":{"northeast":{"lat":55.4419839,"lng":87.315415},"southwest":{"lat":40.5685841,"lng":46.493672}},"center":{"lat":48.019573,"lng":66.923684}},{"location_name":"Italy","sex_name":"Both","age_name":"All Ages","cause_name":"Nutritional deficiencies","year":2017,"val":405.6980077801254,"upper":442.2799547362612,"lower":370.54965434338465,"all_causes_val":622129.8343606984,"population":60597479.9784122,"death_rate":0.010266595815243992,"location_name_en":"Italy","location_name_de":"Italien","bounds":{"northeast":{"lat":47.092,"lng":18.7975999},"southwest":{"lat":35.4897,"lng":6.6267201}},"center":{"lat":41.87194,"lng":12.56738}},{"location_name":"Bermuda","sex_name":"Both","age_name":"All Ages","cause_name":"Nutritional deficiencies","year":2017,"val":0.3427611503893842,"upper":0.38246601436666616,"lower":0.3089621995166413,"all_causes_val":526.2722920407928,"population":65886.0750038621,"death_rate":0.007987610310827346,"location_name_en":"Bermuda","location_name_de":"Bermuda","bounds":{"northeast":{"lat":32.3961,"lng":-64.6413999},"southwest":{"lat":32.2424975,"lng":-64.89139999999999}},"center":{"lat":32.3078,"lng":-64.7505}},{"location_name":"Taiwan","sex_name":"Both","age_name":"All Ages","cause_name":"Nutritional deficiencies","year":2017,"val":113.43469634357147,"upper":123.07940521154696,"lower":103.87469962207372,"all_causes_val":179636.58242364353,"population":23583125.7150999,"death_rate":0.007617165959838185,"location_name_en":"Taiwan","location_name_de":"Taiwan","bounds":{"northeast":{"lat":26.4545,"lng":123.5021012},"southwest":{"lat":20.5170001,"lng":116.6665}},"center":{"lat":23.69781,"lng":120.960515}},{"location_name":"Palestine","sex_name":"Both","age_name":"All Ages","cause_name":"Nutritional deficiencies","year":2017,"val":8.879012698295622,"upper":10.2145295065424,"lower":7.884166444192421,"all_causes_val":14447.75738505239,"population":4852096.65229192,"death_rate":0.0029776318198912826,"location_name_en":"Palestine","location_name_de":"Palästina","bounds":{"northeast":{"lat":32.5520999,"lng":35.5740521},"southwest":{"lat":31.219691,"lng":34.21010010000001}},"center":{"lat":31.952162,"lng":35.233154}},{"location_name":"Syria","sex_name":"Both","age_name":"All Ages","cause_name":"Nutritional deficiencies","year":2017,"val":68.45561098954302,"upper":79.98998651806818,"lower":58.7051446282185,"all_causes_val":114382.68351952036,"population":18131193.6607019,"death_rate":0.006308612971656514,"location_name_en":"Syria","location_name_de":"Syrien","bounds":{"northeast":{"lat":37.318693,"lng":42.376309},"southwest":{"lat":32.311136,"lng":35.62869999999999}},"center":{"lat":34.80207499999999,"lng":38.996815}},{"location_name":"Cuba","sex_name":"Both","age_name":"All Ages","cause_name":"Nutritional deficiencies","year":2017,"val":60.26215626656633,"upper":66.90184916396912,"lower":53.620858154321716,"all_causes_val":101444.37858326462,"population":11376668.9345331,"death_rate":0.008916878848020017,"location_name_en":"Cuba","location_name_de":"Kuba","bounds":{"northeast":{"lat":23.3776001,"lng":-73.9545},"southwest":{"lat":19.6529001,"lng":-85.1715001}},"center":{"lat":21.521757,"lng":-77.781167}},{"location_name":"Algeria","sex_name":"Both","age_name":"All Ages","cause_name":"Nutritional deficiencies","year":2017,"val":97.70408901113423,"upper":115.8177300226019,"lower":80.04819289024829,"all_causes_val":167907.4347127858,"population":40463698.1374229,"death_rate":0.004149582031344199,"location_name_en":"Algeria","location_name_de":"Algerien","bounds":{"northeast":{"lat":37.2216,"lng":11.9999992},"southwest":{"lat":18.9681469,"lng":-8.6676111}},"center":{"lat":28.033886,"lng":1.659626}},{"location_name":"Mongolia","sex_name":"Both","age_name":"All Ages","cause_name":"Nutritional deficiencies","year":2017,"val":11.481590775938376,"upper":13.310977243955545,"lower":9.835863410294845,"all_causes_val":21210.01455054702,"population":3251425.53316715,"death_rate":0.0065232970382338,"location_name_en":"Mongolia","location_name_de":"Mongolei","bounds":{"northeast":{"lat":52.148355,"lng":119.9315098},"southwest":{"lat":41.581833,"lng":87.7344789}},"center":{"lat":46.862496,"lng":103.846656}},{"location_name":"Russian Federation","sex_name":"Both","age_name":"All Ages","cause_name":"Nutritional deficiencies","year":2017,"val":990.901152259597,"upper":1024.6251581383376,"lower":964.3134583975852,"all_causes_val":1834721.8725872417,"population":146189867.401218,"death_rate":0.012550267027412021,"location_name_en":"Russia","location_name_de":"Russland","bounds":{"northeast":{"lat":70,"lng":179},"southwest":{"lat":40,"lng":27}},"center":{"lat":61.52401,"lng":105.318756}},{"location_name":"Iran","sex_name":"Both","age_name":"All Ages","cause_name":"Nutritional deficiencies","year":2017,"val":201.8215802092504,"upper":213.60837026191618,"lower":192.0238656745347,"all_causes_val":380006.28905036836,"population":82176111.0977552,"death_rate":0.004624291463468256,"location_name_en":"Iran","location_name_de":"Iran","bounds":{"northeast":{"lat":39.782056,"lng":63.3333366},"southwest":{"lat":24.8066999,"lng":44.0326949}},"center":{"lat":32.427908,"lng":53.688046}},{"location_name":"Saudi Arabia","sex_name":"Both","age_name":"All Ages","cause_name":"Nutritional deficiencies","year":2017,"val":48.94313194228285,"upper":57.39221729743769,"lower":42.4254027847596,"all_causes_val":94588.1062340141,"population":34444053.6719772,"death_rate":0.002746137464968839,"location_name_en":"Saudi Arabia","location_name_de":"Saudi-Arabien","bounds":{"northeast":{"lat":32.154284,"lng":55.6666999},"southwest":{"lat":16.0036,"lng":34.4815001}},"center":{"lat":23.885942,"lng":45.079162}},{"location_name":"Azerbaijan","sex_name":"Both","age_name":"All Ages","cause_name":"Nutritional deficiencies","year":2017,"val":38.09391292499811,"upper":45.31400092701602,"lower":32.35901252678671,"all_causes_val":75511.84081385373,"population":10225020.571241,"death_rate":0.007385006248910552,"location_name_en":"Azerbaijan","location_name_de":"Aserbaidschan","bounds":{"northeast":{"lat":41.9594999,"lng":50.7458001},"southwest":{"lat":38.3922171,"lng":44.7632599}},"center":{"lat":40.143105,"lng":47.576927}},{"location_name":"Kyrgyzstan","sex_name":"Both","age_name":"All Ages","cause_name":"Nutritional deficiencies","year":2017,"val":16.84306929266916,"upper":19.075219409163367,"lower":15.274399795008652,"all_causes_val":33901.24221956858,"population":6368575.77183487,"death_rate":0.005323206229169381,"location_name_en":"Kyrgyzstan","location_name_de":"Kirgisistan","bounds":{"northeast":{"lat":43.2653569,"lng":80.2281514},"southwest":{"lat":39.180254,"lng":69.250998}},"center":{"lat":41.20438,"lng":74.766098}},{"location_name":"Morocco","sex_name":"Both","age_name":"All Ages","cause_name":"Nutritional deficiencies","year":2017,"val":109.57874304990196,"upper":149.14060874270157,"lower":80.36009969609378,"all_causes_val":220711.28479259842,"population":35488915.4878584,"death_rate":0.006219161159436078,"location_name_en":"Morocco","location_name_de":"Marokko","bounds":{"northeast":{"lat":35.9344,"lng":-0.9969759},"southwest":{"lat":27.6672693,"lng":-13.3044001}},"center":{"lat":31.791702,"lng":-7.092619999999999}},{"location_name":"Libya","sex_name":"Both","age_name":"All Ages","cause_name":"Nutritional deficiencies","year":2017,"val":16.57579696104864,"upper":21.553098840591367,"lower":13.001656276043306,"all_causes_val":34455.83411325673,"population":6908739.66048985,"death_rate":0.0049872821681652005,"location_name_en":"Libya","location_name_de":"Libyen","bounds":{"northeast":{"lat":33.2203,"lng":25.2686},"southwest":{"lat":19.5,"lng":9.391466}},"center":{"lat":26.3351,"lng":17.228331}},{"location_name":"Germany","sex_name":"Both","age_name":"All Ages","cause_name":"Nutritional deficiencies","year":2017,"val":455.5055661235918,"upper":503.3007421890223,"lower":407.3521905609282,"all_causes_val":947309.1694293078,"population":83294523.7888545,"death_rate":0.011373006607621253,"location_name_en":"Germany","location_name_de":"Deutschland","bounds":{"northeast":{"lat":55.0815,"lng":15.0418962},"southwest":{"lat":47.2701115,"lng":5.8663425}},"center":{"lat":51.165691,"lng":10.451526}},{"location_name":"Brunei","sex_name":"Both","age_name":"All Ages","cause_name":"Nutritional deficiencies","year":2017,"val":0.8914835714211039,"upper":1.0057105490279952,"lower":0.7958609596913396,"all_causes_val":1875.0299033880876,"population":432450.733521696,"death_rate":0.004335823154047252,"location_name_en":"Brunei","location_name_de":"Brunei Darussalam","bounds":{"northeast":{"lat":5.0978001,"lng":115.3639552},"southwest":{"lat":4.002460999999999,"lng":114.0752}},"center":{"lat":4.535277,"lng":114.727669}},{"location_name":"Malaysia","sex_name":"Both","age_name":"All Ages","cause_name":"Nutritional deficiencies","year":2017,"val":65.69508013762903,"upper":73.66782732281297,"lower":58.92529392475047,"all_causes_val":165133.20435599904,"population":30639827.7531561,"death_rate":0.005389495191890864,"location_name_en":"Malaysia","location_name_de":"Malaysia","bounds":{"northeast":{"lat":7.819846999999999,"lng":119.813461},"southwest":{"lat":0.461421,"lng":99.42283599999999}},"center":{"lat":4.210484,"lng":101.975766}},{"location_name":"Tunisia","sex_name":"Both","age_name":"All Ages","cause_name":"Nutritional deficiencies","year":2017,"val":25.73168179476473,"upper":31.15820122236799,"lower":20.747686423860614,"all_causes_val":66264.2220760711,"population":11442183.2382617,"death_rate":0.005791221893256273,"location_name_en":"Tunisia","location_name_de":"Tunesien","bounds":{"northeast":{"lat":37.5359,"lng":11.599217},"southwest":{"lat":30.2280339,"lng":7.522311}},"center":{"lat":33.886917,"lng":9.537499}},{"location_name":"Lebanon","sex_name":"Both","age_name":"All Ages","cause_name":"Nutritional deficiencies","year":2017,"val":12.913018447580786,"upper":15.307325168187814,"lower":10.825049698389005,"all_causes_val":33578.40161473923,"population":8511979.51599936,"death_rate":0.0039448405099688395,"location_name_en":"Lebanon","location_name_de":"Libanon","bounds":{"northeast":{"lat":34.69209,"lng":36.62372},"southwest":{"lat":33.0550256,"lng":35.0711001}},"center":{"lat":33.854721,"lng":35.862285}},{"location_name":"Belarus","sex_name":"Both","age_name":"All Ages","cause_name":"Nutritional deficiencies","year":2017,"val":45.31263457200516,"upper":51.20106380311749,"lower":41.233526224046514,"all_causes_val":120940.78765004365,"population":9491039.62812792,"death_rate":0.012742628035354529,"location_name_en":"Belarus","location_name_de":"Weißrussland","bounds":{"northeast":{"lat":56.1718719,"lng":32.7768202},"southwest":{"lat":51.26201100000001,"lng":23.1783377}},"center":{"lat":53.709807,"lng":27.953389}},{"location_name":"Andorra","sex_name":"Both","age_name":"All Ages","cause_name":"Nutritional deficiencies","year":2017,"val":0.20536184644231864,"upper":0.23966254096490655,"lower":0.17396573059782608,"all_causes_val":559.4858724959412,"population":79966.0015708302,"death_rate":0.0069965468012099415,"location_name_en":"Andorra","location_name_de":"Andorra","bounds":{"northeast":{"lat":42.655791,"lng":1.786639},"southwest":{"lat":42.4287488,"lng":1.4087052}},"center":{"lat":42.506285,"lng":1.521801}},{"location_name":"United Arab Emirates","sex_name":"Both","age_name":"All Ages","cause_name":"Nutritional deficiencies","year":2017,"val":9.017846107657716,"upper":11.021031975187332,"lower":7.3212089323498155,"all_causes_val":26374.50982876709,"population":9734100.22445125,"death_rate":0.002709496432193755,"location_name_en":"United Arab Emirates","location_name_de":"Vereinigte Arabische Emirate","bounds":{"northeast":{"lat":26.0765,"lng":56.4395001},"southwest":{"lat":22.6315138,"lng":51.4723}},"center":{"lat":23.424076,"lng":53.847818}},{"location_name":"Jordan","sex_name":"Both","age_name":"All Ages","cause_name":"Nutritional deficiencies","year":2017,"val":9.082850485183075,"upper":10.530365094292124,"lower":7.915007367506623,"all_causes_val":27515.49062606179,"population":10648463.1476064,"death_rate":0.002583987026545405,"location_name_en":"# 121","location_name_de":"Jordan","bounds":{"northeast":{"lat":37.9987193802915,"lng":-97.33291341970849},"southwest":{"lat":37.99602141970851,"lng":-97.33561138029151}},"center":{"lat":37.9973704,"lng":-97.3342624}},{"location_name":"Romania","sex_name":"Both","age_name":"All Ages","cause_name":"Nutritional deficiencies","year":2017,"val":81.53602852777766,"upper":88.15115685473396,"lower":75.32742458066818,"all_causes_val":261100.99727086595,"population":19433765.9551918,"death_rate":0.013435429750100078,"location_name_en":"Romania","location_name_de":"Rumänien","bounds":{"northeast":{"lat":48.26518,"lng":29.77839999999999},"southwest":{"lat":43.6186193,"lng":20.2617591}},"center":{"lat":45.943161,"lng":24.96676}},{"location_name":"New Zealand","sex_name":"Both","age_name":"All Ages","cause_name":"Nutritional deficiencies","year":2017,"val":10.075905423903112,"upper":11.081305671862712,"lower":9.168259706602027,"all_causes_val":32621.442953381546,"population":4448375.07387207,"death_rate":0.007333339120836846,"location_name_en":"New Zealand","location_name_de":"Neuseeland","bounds":{"northeast":{"lat":-28.8773225,"lng":-175.1235077},"southwest":{"lat":-52.7224663,"lng":165.7437641}},"center":{"lat":-40.900557,"lng":174.885971}},{"location_name":"Ireland","sex_name":"Both","age_name":"All Ages","cause_name":"Nutritional deficiencies","year":2017,"val":8.972685935702685,"upper":10.019475111736265,"lower":8.014080155770875,"all_causes_val":30809.88389498116,"population":4860552.38032325,"death_rate":0.006338761828739341,"location_name_en":"Ireland","location_name_de":"Irland","bounds":{"northeast":{"lat":55.38294149999999,"lng":-5.431909999999999},"southwest":{"lat":51.4475448,"lng":-10.4800237}},"center":{"lat":53.1423672,"lng":-7.692053599999999}},{"location_name":"Turkmenistan","sex_name":"Both","age_name":"All Ages","cause_name":"Nutritional deficiencies","year":2017,"val":9.492915743243092,"upper":10.788704874722907,"lower":8.396689476049758,"all_causes_val":32991.733266170326,"population":4976883.15103904,"death_rate":0.006628994948230307,"location_name_en":"Turkmenistan","location_name_de":"Turkmenistan","bounds":{"northeast":{"lat":42.798844,"lng":66.70735309999999},"southwest":{"lat":35.12876,"lng":52.3169}},"center":{"lat":38.969719,"lng":59.556278}},{"location_name":"Malta","sex_name":"Both","age_name":"All Ages","cause_name":"Nutritional deficiencies","year":2017,"val":1.1268516470652703,"upper":1.2667514482697573,"lower":0.9917079724641985,"all_causes_val":3991.2084529328486,"population":434472.34157536,"death_rate":0.009186334942429394,"location_name_en":"Malta","location_name_de":"Malta","bounds":{"northeast":{"lat":36.0853,"lng":14.5765999},"southwest":{"lat":35.79960000000001,"lng":14.1801001}},"center":{"lat":35.937496,"lng":14.375416}},{"location_name":"Latvia","sex_name":"Both","age_name":"All Ages","cause_name":"Nutritional deficiencies","year":2017,"val":7.227374404604473,"upper":8.20235650259724,"lower":6.309920944828759,"all_causes_val":28053.916765353606,"population":1945427.35691793,"death_rate":0.014420439121303613,"location_name_en":"Latvia","location_name_de":"Lettland","bounds":{"northeast":{"lat":58.0855688,"lng":28.2414029},"southwest":{"lat":55.6747769,"lng":20.8465999}},"center":{"lat":56.879635,"lng":24.603189}},{"location_name":"Ukraine","sex_name":"Both","age_name":"All Ages","cause_name":"Nutritional deficiencies","year":2017,"val":171.72256769020416,"upper":194.78411973368233,"lower":156.5104304764026,"all_causes_val":689878.8076412412,"population":44689083.8155065,"death_rate":0.015437300314531457,"location_name_en":"Ukraine","location_name_de":"Ukraine","bounds":{"northeast":{"lat":52.3793713,"lng":40.2204802},"southwest":{"lat":44.2924,"lng":22.137159}},"center":{"lat":48.379433,"lng":31.1655799}},{"location_name":"Poland","sex_name":"Both","age_name":"All Ages","cause_name":"Nutritional deficiencies","year":2017,"val":97.8794414629675,"upper":106.6978490034635,"lower":89.63113689078865,"all_causes_val":394350.87119056366,"population":38393060.750173,"death_rate":0.010271410079978754,"location_name_en":"Poland","location_name_de":"Polen","bounds":{"northeast":{"lat":54.9054761,"lng":24.1458931},"southwest":{"lat":49.002025,"lng":14.1228641}},"center":{"lat":51.919438,"lng":19.145136}},{"location_name":"Uzbekistan","sex_name":"Both","age_name":"All Ages","cause_name":"Nutritional deficiencies","year":2017,"val":50.08275748588799,"upper":56.550167230680714,"lower":44.54705309796508,"all_causes_val":205264.84444114155,"population":32236895.1499448,"death_rate":0.0063673887788009585,"location_name_en":"Uzbekistan","location_name_de":"Usbekistan","bounds":{"northeast":{"lat":45.590075,"lng":73.148946},"southwest":{"lat":37.1722571,"lng":55.9982179}},"center":{"lat":41.377491,"lng":64.585262}},{"location_name":"United Kingdom","sex_name":"Both","age_name":"All Ages","cause_name":"Nutritional deficiencies","year":2017,"val":144.75182081801907,"upper":148.4709279815977,"lower":141.227742013711,"all_causes_val":608261.5054415703,"population":66635515.4784118,"death_rate":0.009128187890114416,"location_name_en":"United Kingdom","location_name_de":"Vereinigtes Königreich","bounds":{"northeast":{"lat":61.5471111,"lng":9.5844157},"southwest":{"lat":47.5554486,"lng":-18.5319589}},"center":{"lat":55.378051,"lng":-3.435973}},{"location_name":"Georgia","sex_name":"Both","age_name":"All Ages","cause_name":"Nutritional deficiencies","year":2017,"val":11.660320017068216,"upper":12.620131282701266,"lower":10.727995293067073,"all_causes_val":50563.74202548814,"population":3691321.81858594,"death_rate":0.013698004267982775,"location_name_en":"Georgia","location_name_de":"Georgia","bounds":{"northeast":{"lat":35.0006589,"lng":-80.751429},"southwest":{"lat":30.3555908,"lng":-85.6051649}},"center":{"lat":32.1656221,"lng":-82.9000751}},{"location_name":"Finland","sex_name":"Both","age_name":"All Ages","cause_name":"Nutritional deficiencies","year":2017,"val":11.799844148649646,"upper":13.095425630773226,"lower":10.71559619728528,"all_causes_val":55071.11546341427,"population":5517977.86056488,"death_rate":0.009980307434176003,"location_name_en":"Finland","location_name_de":"Finnland","bounds":{"northeast":{"lat":70.0922932,"lng":31.5870999},"southwest":{"lat":59.693623,"lng":20.4565002}},"center":{"lat":61.92410999999999,"lng":25.7481511}},{"location_name":"Qatar","sex_name":"Both","age_name":"All Ages","cause_name":"Nutritional deficiencies","year":2017,"val":0.7730902489287385,"upper":0.9605377055265971,"lower":0.6303977789786869,"all_causes_val":3745.6390007390805,"population":2747310.81080871,"death_rate":0.0013633837809696161,"location_name_en":"Qatar","location_name_de":"Katar","bounds":{"northeast":{"lat":26.2171,"lng":51.7144001},"southwest":{"lat":24.471118,"lng":50.7211001}},"center":{"lat":25.354826,"lng":51.183884}},{"location_name":"Albania","sex_name":"Both","age_name":"All Ages","cause_name":"Nutritional deficiencies","year":2017,"val":4.458937676357804,"upper":5.5530076727749895,"lower":3.6548724296005672,"all_causes_val":21756.81898234015,"population":2766161.55214759,"death_rate":0.007865346463748153,"location_name_en":"Albania","location_name_de":"Albanien","bounds":{"northeast":{"lat":42.6611669,"lng":21.0572394},"southwest":{"lat":39.6447296,"lng":19.1217}},"center":{"lat":41.153332,"lng":20.168331}},{"location_name":"Hungary","sex_name":"Both","age_name":"All Ages","cause_name":"Nutritional deficiencies","year":2017,"val":24.565463662521672,"upper":26.915510280762774,"lower":22.479434552542727,"all_causes_val":122036.08252670435,"population":9727364.16689975,"death_rate":0.01254564756010353,"location_name_en":"Hungary","location_name_de":"Ungarn","bounds":{"northeast":{"lat":48.585234,"lng":22.8965438},"southwest":{"lat":45.7370889,"lng":16.1133078}},"center":{"lat":47.162494,"lng":19.5033041}},{"location_name":"Bosnia and Herzegovina","sex_name":"Both","age_name":"All Ages","cause_name":"Nutritional deficiencies","year":2017,"val":6.1202830293179415,"upper":6.9794498578498345,"lower":5.376733682533962,"all_causes_val":37010.538309829964,"population":3399239.46075152,"death_rate":0.010887887934099089,"location_name_en":"Bosnia and Herzegovina","location_name_de":"Bosnien und Herzegowina","bounds":{"northeast":{"lat":45.2766262,"lng":19.6237016},"southwest":{"lat":42.5564808,"lng":15.7223665}},"center":{"lat":43.915886,"lng":17.679076}},{"location_name":"Serbia","sex_name":"Both","age_name":"All Ages","cause_name":"Nutritional deficiencies","year":2017,"val":19.482879988686854,"upper":21.708138041069986,"lower":17.4654500052027,"all_causes_val":123685.10176039873,"population":8874098.39695153,"death_rate":0.01393776541883822,"location_name_en":"Serbia","location_name_de":"Serbien","bounds":{"northeast":{"lat":46.190032,"lng":23.0063095},"southwest":{"lat":42.2315029,"lng":18.8385221}},"center":{"lat":44.016521,"lng":21.005859}},{"location_name":"Montenegro","sex_name":"Both","age_name":"All Ages","cause_name":"Nutritional deficiencies","year":2017,"val":0.9953748814412369,"upper":1.1411833251058139,"lower":0.878924805744999,"all_causes_val":6502.302865794328,"population":626317.940217071,"death_rate":0.010381792454389447,"location_name_en":"Montenegro","location_name_de":"Montenegro","bounds":{"northeast":{"lat":43.558743,"lng":20.352926},"southwest":{"lat":41.8297,"lng":18.4337921}},"center":{"lat":42.708678,"lng":19.37439}},{"location_name":"Slovakia","sex_name":"Both","age_name":"All Ages","cause_name":"Nutritional deficiencies","year":2017,"val":7.314465805659563,"upper":8.115164168222247,"lower":6.621940113827115,"all_causes_val":52781.96605103048,"population":5419210.14821121,"death_rate":0.00973978949099306,"location_name_en":"Slovakia","location_name_de":"Slowakei","bounds":{"northeast":{"lat":49.613805,"lng":22.5658602},"southwest":{"lat":47.731159,"lng":16.8331821}},"center":{"lat":48.669026,"lng":19.699024}},{"location_name":"Armenia","sex_name":"Both","age_name":"All Ages","cause_name":"Nutritional deficiencies","year":2017,"val":3.5304295300896413,"upper":3.787959488331007,"lower":3.2920499915398014,"all_causes_val":28294.130461731314,"population":3027231.43031573,"death_rate":0.009346536963901808,"location_name_en":"Armenia","location_name_de":"Armenien","bounds":{"northeast":{"lat":41.300993,"lng":46.6342219},"southwest":{"lat":38.840244,"lng":43.4472601}},"center":{"lat":40.069099,"lng":45.038189}},{"location_name":"Lithuania","sex_name":"Both","age_name":"All Ages","cause_name":"Nutritional deficiencies","year":2017,"val":4.385950092699473,"upper":4.832213935315133,"lower":3.987311922206214,"all_causes_val":40898.85976975986,"population":2847647.299027,"death_rate":0.014362333349264992,"location_name_en":"Lithuania","location_name_de":"Litauen","bounds":{"northeast":{"lat":56.45032089999999,"lng":26.835523},"southwest":{"lat":53.8967949,"lng":20.931}},"center":{"lat":55.169438,"lng":23.881275}},{"location_name":"Austria","sex_name":"Both","age_name":"All Ages","cause_name":"Nutritional deficiencies","year":2017,"val":8.687967546022321,"upper":9.50350736344857,"lower":7.939829806911709,"all_causes_val":81371.37953493644,"population":8793125.43150511,"death_rate":0.009253976890104272,"location_name_en":"Austria","location_name_de":"Österreich","bounds":{"northeast":{"lat":49.0206081,"lng":17.1607329},"southwest":{"lat":46.37233579999999,"lng":9.530783399999999}},"center":{"lat":47.516231,"lng":14.550072}},{"location_name":"Estonia","sex_name":"Both","age_name":"All Ages","cause_name":"Nutritional deficiencies","year":2017,"val":1.5612317027291456,"upper":1.7866993353091756,"lower":1.3589935096922807,"all_causes_val":15296.437065496075,"population":1314543.32134135,"death_rate":0.01163631263965322,"location_name_en":"Estonia","location_name_de":"Estland","bounds":{"northeast":{"lat":59.7315,"lng":28.2101389},"southwest":{"lat":57.50931600000001,"lng":21.6540999}},"center":{"lat":58.595272,"lng":25.0136071}},{"location_name":"Bulgaria","sex_name":"Both","age_name":"All Ages","cause_name":"Nutritional deficiencies","year":2017,"val":9.93526027763098,"upper":10.79895908463915,"lower":9.134388342450713,"all_causes_val":107619.39118096461,"population":7052339.34946623,"death_rate":0.01526009822387659,"location_name_en":"Bulgaria","location_name_de":"Bulgarien","bounds":{"northeast":{"lat":44.2153059,"lng":28.7292001},"southwest":{"lat":41.2354469,"lng":22.3573446}},"center":{"lat":42.733883,"lng":25.48583}},{"location_name":"Kuwait","sex_name":"Both","age_name":"All Ages","cause_name":"Nutritional deficiencies","year":2017,"val":0.6928536435070669,"upper":0.7493071749292495,"lower":0.6408577826835409,"all_causes_val":7732.700448983594,"population":4262200.04533802,"death_rate":0.0018142509424074536,"location_name_en":"Kuwait","location_name_de":"Kuwait","bounds":{"northeast":{"lat":30.1036993,"lng":48.5184},"southwest":{"lat":28.5244463,"lng":46.55303989999999}},"center":{"lat":29.31166,"lng":47.481766}},{"location_name":"Singapore","sex_name":"Both","age_name":"All Ages","cause_name":"Nutritional deficiencies","year":2017,"val":1.3967823501746113,"upper":1.5089163765248248,"lower":1.2954955231547354,"all_causes_val":19840.390386524676,"population":5568480.92637563,"death_rate":0.003562980757022766,"location_name_en":"Singapore","location_name_de":"Singapur","bounds":{"northeast":{"lat":1.4784001,"lng":104.0945001},"southwest":{"lat":1.1496,"lng":103.594}},"center":{"lat":1.352083,"lng":103.819836}},{"location_name":"Slovenia","sex_name":"Both","age_name":"All Ages","cause_name":"Nutritional deficiencies","year":2017,"val":1.3727706973694285,"upper":1.5237810002758385,"lower":1.2410034949456599,"all_causes_val":19903.95618200428,"population":2068856.27647109,"death_rate":0.009620753460919505,"location_name_en":"Slovenia","location_name_de":"Slowenien","bounds":{"northeast":{"lat":46.876659,"lng":16.6107038},"southwest":{"lat":45.4218356,"lng":13.3753355}},"center":{"lat":46.151241,"lng":14.995463}},{"location_name":"Greece","sex_name":"Both","age_name":"All Ages","cause_name":"Nutritional deficiencies","year":2017,"val":7.659512691183874,"upper":8.475424559627562,"lower":6.8926193772355004,"all_causes_val":120257.57546648482,"population":10402318.5296505,"death_rate":0.011560651130198113,"location_name_en":"Greece","location_name_de":"Griechenland","bounds":{"northeast":{"lat":41.7488784,"lng":29.6527999},"southwest":{"lat":34.5428,"lng":19.3098}},"center":{"lat":39.074208,"lng":21.824312}},{"location_name":"Croatia","sex_name":"Both","age_name":"All Ages","cause_name":"Nutritional deficiencies","year":2017,"val":3.007478071492414,"upper":3.321785936920012,"lower":2.7338969266850204,"all_causes_val":51210.60943917261,"population":4275495.81821378,"death_rate":0.011977700743154372,"location_name_en":"Croatia","location_name_de":"Kroatien","bounds":{"northeast":{"lat":46.5549857,"lng":19.4480523},"southwest":{"lat":42.3385087,"lng":13.3649}},"center":{"lat":45.1,"lng":15.2000001}},{"location_name":"Macedonia","sex_name":"Both","age_name":"All Ages","cause_name":"Nutritional deficiencies","year":2017,"val":0.9645402310248031,"upper":1.0615419521013971,"lower":0.8838912126898216,"all_causes_val":19110.9933600096,"population":2174828.30627315,"death_rate":0.008787357284657916,"location_name_en":"Macedonia (FYROM)","location_name_de":"Mazedonien (EJRM)","bounds":{"northeast":{"lat":42.535,"lng":24.182},"southwest":{"lat":39.705,"lng":20.29}},"center":{"lat":41.608635,"lng":21.745275}},{"location_name":"Moldova","sex_name":"Both","age_name":"All Ages","cause_name":"Nutritional deficiencies","year":2017,"val":2.0072306351399174,"upper":2.167372760224952,"lower":1.868567943653916,"all_causes_val":41804.335534257494,"population":3721820.48970747,"death_rate":0.011232227790100446,"location_name_en":"Moldova","location_name_de":"Moldawien","bounds":{"northeast":{"lat":48.492029,"lng":30.1635898},"southwest":{"lat":45.4674379,"lng":26.6164248}},